[{"id": "WWS467", "name": "Tuas South Blvd Ext Inland Outfall", "lat": 1.28386, "lng": 103.61928, "copeE": null, "copeF": null, "copeG": null}, {"id": "WWS437", "name": "Tuas South Ave 5 OD1 (Tuas View Crescent)", "lat": 1.2947725, "lng": 103.6274128, "copeE": null, "copeF": null, "copeG": null}, {"id": "WWS362", "name": "Tuas Rd OD5 (Tuas West Dr) D/s", "lat": 1.3377187, "lng": 103.6354404, "copeE": null, "copeF": null, "copeG": null}, {"id": "WWS391", "name": "Tuas Rd OD6 (Opp Tuas Bus Terminal)", "lat": 1.3425674, "lng": 103.6375964, "copeE": null, "copeF": null, "copeG": null}, {"id": "WWS363", "name": "Tuas Rd OD5 (Tuas West Ave) D/s", "lat": 1.3341671, "lng": 103.6390965, "copeE": null, "copeF": null, "copeG": null}, {"id": "WWS369", "name": "Tuas Rd OD5 (Tuas West Ave) U/s", "lat": 1.3337913, "lng": 103.6394499, "copeE": null, "copeF": null, "copeG": null}, {"id": "WWS376", "name": "Tuas Rd OD5 (Tuas West Rd)", "lat": 1.3328678, "lng": 103.6404984, "copeE": null, "copeF": null, "copeG": null}, {"id": "WWS378", "name": "Tuas West Rd (Mapei Far East)", "lat": 1.332704, "lng": 103.6410468, "copeE": null, "copeF": null, "copeG": null}, {"id": "WWS368", "name": "Tuas Ave 9/Tuas Lane", "lat": 1.3295828, "lng": 103.6431007, "copeE": null, "copeF": null, "copeG": null}, {"id": "WWS367", "name": "Tuas Ave 7 (Fujifilm)", "lat": 1.33218, "lng": 103.64508, "copeE": null, "copeF": null, "copeG": null}, {"id": "WWS452", "name": "Tuas Rd OD4 (Tuas Ave 11)", "lat": 1.3221523, "lng": 103.6450956, "copeE": null, "copeF": null, "copeG": null}, {"id": "WWS387", "name": "Tuas Ave 12/Tuas Ave 1", "lat": 1.3354, "lng": 103.64606, "copeE": null, "copeF": null, "copeG": null}, {"id": "WWS372", "name": "Tuas Ave 1 (SMC Manufacturing)", "lat": 1.3346713, "lng": 103.6471799, "copeE": null, "copeF": null, "copeG": null}, {"id": "WWS315", "name": "Tuas Rd End OD (43)", "lat": 1.3072398, "lng": 103.6495743, "copeE": null, "copeF": null, "copeG": null}, {"id": "WWS379", "name": "Jln Ahmad Ibrahim (Hoya Bldg)", "lat": 1.334781, "lng": 103.650932, "copeE": null, "copeF": null, "copeG": null}, {"id": "WWS380", "name": "Pioneer Sector 1/Pioneer Sector 2", "lat": 1.3073424, "lng": 103.6579311, "copeE": null, "copeF": null, "copeG": null}, {"id": "WWS405", "name": "Pioneer Sector 1/Pioneer Sector 3", "lat": 1.3080739, "lng": 103.6596951, "copeE": null, "copeF": null, "copeG": null}, {"id": "WWS095", "name": "PIE/Tuas Exit", "lat": 1.325286, "lng": 103.665511, "copeE": null, "copeF": null, "copeG": null}, {"id": "WWS089", "name": "Gul Way/Pioneer Rd", "lat": 1.310963, "lng": 103.670688, "copeE": null, "copeF": null, "copeG": null}, {"id": "WWS094", "name": "Gul Circle", "lat": 1.312554, "lng": 103.676528, "copeE": null, "copeF": null, "copeG": null}, {"id": "WWS435", "name": "Gul Ave (JTC Logistics Hub)", "lat": 1.3153332, "lng": 103.6780124, "copeE": null, "copeF": null, "copeG": null}, {"id": "WWS447", "name": "Benoi Rd (Fairprice Hub)", "lat": 1.3255542, "lng": 103.6789171, "copeE": null, "copeF": null, "copeG": null}, {"id": "WWS375", "name": "Shipyard Rd (Emas Marine Base)", "lat": 1.3044085, "lng": 103.6845633, "copeE": null, "copeF": null, "copeG": null}, {"id": "WWS012", "name": "International Rd / 4th Lok Yang Rd", "lat": 1.327881, "lng": 103.687421, "copeE": null, "copeF": null, "copeG": null}, {"id": "WWS194", "name": "Sg Lanchar Sub Drain A (Yunnan Cres)", "lat": 1.3385205, "lng": 103.689187, "copeE": null, "copeF": null, "copeG": null}, {"id": "WWS195", "name": "Sg Lanchar Sub Drain B2 (Blk 846)", "lat": 1.3452061, "lng": 103.691172, "copeE": null, "copeF": null, "copeG": null}, {"id": "WWS196", "name": "Sg Lanchar Sub Drain A (Upper Jurong Rd)", "lat": 1.3344021, "lng": 103.692577, "copeE": null, "copeF": null, "copeG": null}, {"id": "WWS197", "name": "Sg Lanchar Sub Drain B2 (Blk 834)", "lat": 1.3433015, "lng": 103.694568, "copeE": null, "copeF": null, "copeG": null}, {"id": "WWS198", "name": "Sg Lanchar Sub Drain B1 (Blk 866)", "lat": 1.3505679, "lng": 103.695689, "copeE": null, "copeF": null, "copeG": null}, {"id": "WWS201", "name": "Sg Lanchar Sub Drain B2 (Blk 639)", "lat": 1.3409851, "lng": 103.696839, "copeE": null, "copeF": null, "copeG": null}, {"id": "WWS200", "name": "Sg Lanchar Sub Drain B1 (Blk 747)", "lat": 1.3476321, "lng": 103.697178, "copeE": null, "copeF": null, "copeG": null}, {"id": "WWS203", "name": "Sg Lanchar Sub Drain A (Pioneer Point)", "lat": 1.3343431, "lng": 103.697818, "copeE": null, "copeF": null, "copeG": null}, {"id": "WWS204", "name": "Sg Lanchar Sub Drain C (Jln Bahar)", "lat": 1.3558585, "lng": 103.698067, "copeE": null, "copeF": null, "copeG": null}, {"id": "WWS205", "name": "Sg Lanchar Sub Drain B1 (Jurong West Ave 4)", "lat": 1.3441387, "lng": 103.700093, "copeE": null, "copeF": null, "copeG": null}, {"id": "WWS206", "name": "Sg Lanchar SD B2 (Blk 613)", "lat": 1.3401921, "lng": 103.700774, "copeE": null, "copeF": null, "copeG": null}, {"id": "WWS207", "name": "Sg Lanchar SD B1 (Blk 667B)", "lat": 1.3408792, "lng": 103.701095, "copeE": null, "copeF": null, "copeG": null}, {"id": "WWS208", "name": "Sg Lanchar SD B (Blk 666A)", "lat": 1.3405246, "lng": 103.701415, "copeE": null, "copeF": null, "copeG": null}, {"id": "WWS209", "name": "Sg Lanchar SD C (Shell)", "lat": 1.3502429, "lng": 103.701513, "copeE": null, "copeF": null, "copeG": null}, {"id": "WWS037", "name": "Jurong Industrial Estate OD (Jln Buroh)", "lat": 1.3144494, "lng": 103.7020192, "copeE": null, "copeF": null, "copeG": null}, {"id": "WWS210", "name": "International Rd OD (International Rd/Fan Yoong Rd)", "lat": 1.328058, "lng": 103.703473, "copeE": null, "copeF": null, "copeG": null}, {"id": "WWS212", "name": "Sg Lanchar SD C (SOKA)", "lat": 1.3480819, "lng": 103.704719, "copeE": null, "copeF": null, "copeG": null}, {"id": "WWS113", "name": "Wan Lee Rd / Enterprise Rd", "lat": 1.3330559, "lng": 103.7055339, "copeE": null, "copeF": null, "copeG": null}, {"id": "WWS213", "name": "Sg Lanchar SD B (Blk 661B)", "lat": 1.3363017, "lng": 103.7056436, "copeE": null, "copeF": null, "copeG": null}, {"id": "WWS446", "name": "Jurong West St 26 (Masjid Maarof)", "lat": 1.349128, "lng": 103.7057773, "copeE": null, "copeF": null, "copeG": null}, {"id": "WWS092", "name": "Jurong Industrial Estate OD(Enterprise Rd)", "lat": 1.332941, "lng": 103.706765, "copeE": null, "copeF": null, "copeG": null}, {"id": "WWS091", "name": "Enterprise Rd", "lat": 1.33351, "lng": 103.707011, "copeE": null, "copeF": null, "copeG": null}, {"id": "WWS214", "name": "Sg Lanchar SD C (Blk 695 Jurong West Central 1)", "lat": 1.342313, "lng": 103.708063, "copeE": null, "copeF": null, "copeG": null}, {"id": "WWS114", "name": "Jalan Boonlay (Bus stop B21339)", "lat": 1.3303607, "lng": 103.7083301, "copeE": null, "copeF": null, "copeG": null}, {"id": "WWS019", "name": "Sg Lanchar (Jln Boon Lay)", "lat": 1.338373, "lng": 103.709275, "copeE": null, "copeF": null, "copeG": null}, {"id": "WWS454", "name": "Chin Bee Dr/Jln Boon Lay", "lat": 1.3362583, "lng": 103.7097218, "copeE": null, "copeF": null, "copeG": null}, {"id": "WWS176", "name": "Chin Bee Rd/ International Rd", "lat": 1.3289087, "lng": 103.7132841, "copeE": null, "copeF": null, "copeG": null}, {"id": "WWS078", "name": "Wenya Earth Drain (Jurong West Ave 2)", "lat": 1.357586, "lng": 103.71428, "copeE": null, "copeF": null, "copeG": null}, {"id": "WWS321", "name": "International Rd/ Second Chin Bee Rd", "lat": 1.3297614, "lng": 103.7143228, "copeE": null, "copeF": null, "copeG": null}, {"id": "WWS096", "name": "Chin Bee Ave / Third Chin Bee Rd", "lat": 1.334032, "lng": 103.714878, "copeE": null, "copeF": null, "copeG": null}, {"id": "WWS224", "name": "Sg Buloh Besar Tributary 1/ Sg Buloh Besar Tributary 4", "lat": 1.43109717, "lng": 103.717163, "copeE": null, "copeF": null, "copeG": null}, {"id": "WWS215", "name": "Jln Tukang OD (Jln Tukang)", "lat": 1.3278073, "lng": 103.7190203, "copeE": null, "copeF": null, "copeG": null}, {"id": "WWS216", "name": "Jurong Port Rd OD (Jln Tepong)", "lat": 1.3123407, "lng": 103.7193173, "copeE": null, "copeF": null, "copeG": null}, {"id": "WWS448", "name": "Jln Terusan OD (CISCO)", "lat": 1.3263499, "lng": 103.7202213, "copeE": null, "copeF": null, "copeG": null}, {"id": "WWS173", "name": "Boon Lay Way (Blk 517C)", "lat": 1.3446688, "lng": 103.7202632, "copeE": null, "copeF": null, "copeG": null}, {"id": "WWS226", "name": "Neo Tiew OD 5 (Neo Tiew Lane 2)", "lat": 1.42023121, "lng": 103.720321, "copeE": null, "copeF": null, "copeG": null}, {"id": "WWS436", "name": "Jln Terusan OD (Shell Jln Ahmad Ibrahim)", "lat": 1.323531, "lng": 103.7213485, "copeE": null, "copeF": null, "copeG": null}, {"id": "WWS064", "name": "Sungei Lanchar (Yuan Ching Road)", "lat": 1.3427398, "lng": 103.7216989, "copeE": null, "copeF": null, "copeG": null}, {"id": "WWS227", "name": "Neo Tiew OD 4 (Turut Track)", "lat": 1.424065, "lng": 103.722174, "copeE": null, "copeF": null, "copeG": null}, {"id": "WWS319", "name": "Jln Terusan OD", "lat": 1.322227696, "lng": 103.7229306, "copeE": null, "copeF": null, "copeG": null}, {"id": "WWS228", "name": "Neo Tiew OD 3 (Neo Tiew Rd)", "lat": 1.429876, "lng": 103.72393, "copeE": null, "copeF": null, "copeG": null}, {"id": "WWS229", "name": "Neo Tiew OD 5 (Neo Tiew Harvest Lane)", "lat": 1.417482, "lng": 103.724315, "copeE": null, "copeF": null, "copeG": null}, {"id": "WWS117", "name": "Yuan Ching Rd / Yung Kuang Rd", "lat": 1.331626, "lng": 103.7248297, "copeE": null, "copeF": null, "copeG": null}, {"id": "WWS109", "name": "Yuan Ching Rd (Jurong Secondary School)", "lat": 1.329816, "lng": 103.72499, "copeE": null, "copeF": null, "copeG": null}, {"id": "WWS043", "name": "Yuan Ching Rd/ Yung Ho Rd", "lat": 1.326599, "lng": 103.725225, "copeE": null, "copeF": null, "copeG": null}, {"id": "WWS056", "name": "Jurong Canal (PIE 32.7km)", "lat": 1.354112, "lng": 103.7263, "copeE": null, "copeF": null, "copeG": null}, {"id": "WWS231", "name": "Neo Tiew Harvest Place", "lat": 1.420218, "lng": 103.726496, "copeE": null, "copeF": null, "copeG": null}, {"id": "WWS077", "name": "Jurong Canal (Boon Lay Way)", "lat": 1.344122, "lng": 103.727956, "copeE": null, "copeF": null, "copeG": null}, {"id": "WWS119", "name": "Jurong Canal Culvert Inlet (PIE)", "lat": 1.353832, "lng": 103.728186, "copeE": null, "copeF": null, "copeG": null}, {"id": "WWS230", "name": "Sg Peng Siang Tributary C (Sg Tengah Rd)", "lat": 1.38362354, "lng": 103.72969, "copeE": null, "copeF": null, "copeG": null}, {"id": "WWS044", "name": "Sg Tengah Rd/ Sg Tengah Agrotechnology Pk", "lat": 1.38248, "lng": 103.731152, "copeE": null, "copeF": null, "copeG": null}, {"id": "WWS111", "name": "Jurong East St 32 (Blk 371)", "lat": 1.3481128, "lng": 103.7315292, "copeE": null, "copeF": null, "copeG": null}, {"id": "WWS233", "name": "Sg Peng Siang Tributary C (Sg Tengah Rd culvert outlet)", "lat": 1.38353249, "lng": 103.731666, "copeE": null, "copeF": null, "copeG": null}, {"id": "WWS112", "name": "Jurong East St 32 (Blk 311)", "lat": 1.3479841, "lng": 103.732185, "copeE": null, "copeF": null, "copeG": null}, {"id": "WWS118", "name": "Jurong East St 32 (Blk 310)", "lat": 1.3479887, "lng": 103.7330795, "copeE": null, "copeF": null, "copeG": null}, {"id": "WWS320", "name": "Jurong East Subsidiary Canal (Blk 374)", "lat": 1.3496114, "lng": 103.7331341, "copeE": null, "copeF": null, "copeG": null}, {"id": "WWS235", "name": "Neo Tiew OD 2 (Kranji Way)", "lat": 1.438236, "lng": 103.733622, "copeE": null, "copeF": null, "copeG": null}, {"id": "WWS073", "name": "Tanjong Penjuru / Penjuru Rd", "lat": 1.306834, "lng": 103.733824, "copeE": null, "copeF": null, "copeG": null}, {"id": "WWS429", "name": "Penjuru Rd OD2 (d/s culvert)", "lat": 1.324207, "lng": 103.733942, "copeE": null, "copeF": null, "copeG": null}, {"id": "WWS234", "name": "Sg Peng Siang Tributary A (Brickland Rd)", "lat": 1.37737583, "lng": 103.734369, "copeE": null, "copeF": null, "copeG": null}, {"id": "WWS236", "name": "Sg Peng Siang Tributary A (484C CCK Ave 5)", "lat": 1.375297, "lng": 103.736794, "copeE": null, "copeF": null, "copeG": null}, {"id": "WWS466", "name": "Penjuru Rd OD2 (u/s culvert)", "lat": 1.323718, "lng": 103.737259, "copeE": null, "copeF": null, "copeG": null}, {"id": "WWS237", "name": "Sg Peng Siang (KJE)", "lat": 1.38448155, "lng": 103.738103, "copeE": null, "copeF": null, "copeG": null}, {"id": "WWS432", "name": "Penjuru Rd OD2 (Singapore Mint)", "lat": 1.324828, "lng": 103.739321, "copeE": null, "copeF": null, "copeG": null}, {"id": "WWS025", "name": "Sg Peng Siang (Choa Chu Kang Ave 4)", "lat": 1.3829089, "lng": 103.7394065, "copeE": null, "copeF": null, "copeG": null}, {"id": "WWS259", "name": "Bt Batok Rd/Bt Batok West Ave 2", "lat": 1.362884, "lng": 103.742592, "copeE": null, "copeF": null, "copeG": null}, {"id": "WWS241", "name": "Choa Chua Kang OD 4 (Blk 351)", "lat": 1.383278, "lng": 103.742869, "copeE": null, "copeF": null, "copeG": null}, {"id": "WWS240", "name": "Bt Batok Canal (Bt Batok Rd)", "lat": 1.362247, "lng": 103.742872, "copeE": null, "copeF": null, "copeG": null}, {"id": "WWS242", "name": "Sg Peng Siang Tributary A (Blk 805B)", "lat": 1.37258255, "lng": 103.743167, "copeE": null, "copeF": null, "copeG": null}, {"id": "WWS106", "name": "Kranji Way", "lat": 1.438686, "lng": 103.7432082, "copeE": null, "copeF": null, "copeG": null}, {"id": "WWS381", "name": "Kranji Way (Blk 43 Kranji Ind Est)", "lat": 1.4383057, "lng": 103.7433091, "copeE": null, "copeF": null, "copeG": null}, {"id": "WWS243", "name": "Choa Chua Kang OD 7 (Blk 805D)", "lat": 1.372364, "lng": 103.744209, "copeE": null, "copeF": null, "copeG": null}, {"id": "WWS027", "name": "Bt Batok West Avenue 8/ PIE", "lat": 1.344924, "lng": 103.744276, "copeE": null, "copeF": null, "copeG": null}, {"id": "WWS178", "name": "Jurong Town Hall Rd/ West Coast Rd", "lat": 1.319435, "lng": 103.74468, "copeE": null, "copeF": null, "copeG": null}, {"id": "WWS245", "name": "Choa Chua Kang OD 4 (Blk 341)", "lat": 1.384624, "lng": 103.745788, "copeE": null, "copeF": null, "copeG": null}, {"id": "WWS389", "name": "Kranji Way (Kranji Way Dormitory)", "lat": 1.4373747, "lng": 103.7458755, "copeE": null, "copeF": null, "copeG": null}, {"id": "WWS244", "name": "Bt Batok OD 2 (Blk 315)", "lat": 1.360645, "lng": 103.74592, "copeE": null, "copeF": null, "copeG": null}, {"id": "WWS399", "name": "Kranji Way/Kranji Link", "lat": 1.4366943, "lng": 103.7465321, "copeE": null, "copeF": null, "copeG": null}, {"id": "WWS246", "name": "Bt Batok Canal (Blk 412)", "lat": 1.364544, "lng": 103.746928, "copeE": null, "copeF": null, "copeG": null}, {"id": "WWS180", "name": "West Coast Rd (Blk 409)", "lat": 1.3183131, "lng": 103.7471349, "copeE": null, "copeF": null, "copeG": null}, {"id": "WWS442", "name": "Toh Guan Rd (Opp Blk 258B)", "lat": 1.3382302, "lng": 103.7477526, "copeE": null, "copeF": null, "copeG": null}, {"id": "WWS403", "name": "Sg Kadut Dr/Kranji Link", "lat": 1.432085, "lng": 103.747756, "copeE": null, "copeF": null, "copeG": null}, {"id": "WWS247", "name": "Bt Batok OD 2 (Blk 311)", "lat": 1.359758, "lng": 103.748192, "copeE": null, "copeF": null, "copeG": null}, {"id": "WWS174", "name": "Choa Chu Kang Way/ Choa Chu Kang Ave 1", "lat": 1.378927, "lng": 103.7483392, "copeE": null, "copeF": null, "copeG": null}, {"id": "WWS457", "name": "Pandan Garden OD (Blk 408)", "lat": 1.318117, "lng": 103.7484471, "copeE": null, "copeF": null, "copeG": null}, {"id": "WWS020", "name": "Sg Pandan (Toh Guan Rd East)", "lat": 1.3368529, "lng": 103.7490902, "copeE": null, "copeF": null, "copeG": null}, {"id": "WWS398", "name": "Sg Kadut Dr/Kranji Way", "lat": 1.435003, "lng": 103.749219, "copeE": null, "copeF": null, "copeG": null}, {"id": "WWS179", "name": "West Coast Rd (Opp Blk 408)", "lat": 1.3176186, "lng": 103.7492462, "copeE": null, "copeF": null, "copeG": null}, {"id": "WWS248", "name": "Bt Batok OD 2 (Blk 532)", "lat": 1.356391, "lng": 103.749506, "copeE": null, "copeF": null, "copeG": null}, {"id": "WWS290", "name": "Pandan Canal (Boon Lay Way)", "lat": 1.33033757, "lng": 103.749711, "copeE": null, "copeF": null, "copeG": null}, {"id": "WWS289", "name": "Bt Batok East OD (PIE)", "lat": 1.3416816, "lng": 103.749711, "copeE": null, "copeF": null, "copeG": null}, {"id": "WWS116", "name": "Choa Chu Kang Ave 1/ Teck Wye Lane", "lat": 1.380737, "lng": 103.749716, "copeE": null, "copeF": null, "copeG": null}, {"id": "WWS458", "name": "AYE Exit 13/Pandan Gardens", "lat": 1.322244, "lng": 103.749797, "copeE": null, "copeF": null, "copeG": null}, {"id": "WWS404", "name": "Kranji Way (Opp Shingda Bldg)", "lat": 1.4350648, "lng": 103.7502262, "copeE": null, "copeF": null, "copeG": null}, {"id": "WWS003", "name": "Sg Pandan (AYE)", "lat": 1.3191182, "lng": 103.7502734, "copeE": null, "copeF": null, "copeG": null}, {"id": "WWS249", "name": "Bt Batok Canal (Bt Batok West Ave 5)", "lat": 1.365544, "lng": 103.750608, "copeE": null, "copeF": null, "copeG": null}, {"id": "WWS251", "name": "Sg Pang Sua (Sg Kadut St 1)", "lat": 1.422543, "lng": 103.750671, "copeE": null, "copeF": null, "copeG": null}, {"id": "WWS250", "name": "Sg Pang Sua Western Drain (Blk 690C)", "lat": 1.4028758, "lng": 103.752525, "copeE": null, "copeF": null, "copeG": null}, {"id": "WWS026", "name": "Sg Pandan (Bukit Batok East Ave 6)", "lat": 1.344481, "lng": 103.752569, "copeE": null, "copeF": null, "copeG": null}, {"id": "WWS291", "name": "Spring View OD (Bt Batok Connection)", "lat": 1.344023, "lng": 103.752881, "copeE": null, "copeF": null, "copeG": null}, {"id": "WWS252", "name": "Sg Pang Sua Eastern Drain (Yew Tee Industrial Estate)", "lat": 1.399993, "lng": 103.752893, "copeE": null, "copeF": null, "copeG": null}, {"id": "WWS093", "name": "Sg Pang Sua (Stagmont Ring)", "lat": 1.3924407, "lng": 103.7530586, "copeE": null, "copeF": null, "copeG": null}, {"id": "WWS253", "name": "Bt Batok OD 2 (Blk 524)", "lat": 1.356603, "lng": 103.753222, "copeE": null, "copeF": null, "copeG": null}, {"id": "WWS255", "name": "Sg Pang Sua Eastern Drain (Stagmont Ring)", "lat": 1.394815, "lng": 103.753592, "copeE": null, "copeF": null, "copeG": null}, {"id": "WWS254", "name": "Sg Pang Sua Western Drain (KJE)", "lat": 1.38809161, "lng": 103.753642, "copeE": null, "copeF": null, "copeG": null}, {"id": "WWS256", "name": "Yew Tee Industrial Estate Drain 4 (Sg Kadut Ave)", "lat": 1.400139, "lng": 103.753642, "copeE": null, "copeF": null, "copeG": null}, {"id": "WWS258", "name": "Sg Pang Sua Eastern Drain (Woodlands Rd)", "lat": 1.391454, "lng": 103.754151, "copeE": null, "copeF": null, "copeG": null}, {"id": "WWS377", "name": "Kranji Loop/Kranji Rd", "lat": 1.4369717, "lng": 103.7543723, "copeE": null, "copeF": null, "copeG": null}, {"id": "WWS257", "name": "Yew Tee Industrial Estate Drain 5 (Sg Kadut Industrial Estate)", "lat": 1.398322, "lng": 103.754482, "copeE": null, "copeF": null, "copeG": null}, {"id": "WWS080", "name": "Sungei Pang Sua SD(Sungei Kadut Ave)", "lat": 1.406739, "lng": 103.754563, "copeE": null, "copeF": null, "copeG": null}, {"id": "WWS445", "name": "Faber Walk OD1 (Faber Walk)", "lat": 1.321229, "lng": 103.754612, "copeE": null, "copeF": null, "copeG": null}, {"id": "WWS373", "name": "Kranji Rd (Timmac@Kranji)", "lat": 1.437826, "lng": 103.7547294, "copeE": null, "copeF": null, "copeG": null}, {"id": "WWS065", "name": "Woodlands Rd / Mandai Rd", "lat": 1.414003, "lng": 103.754814, "copeE": null, "copeF": null, "copeG": null}, {"id": "WWS028", "name": "Toh Tuck OD (Boon Lay Way)", "lat": 1.327219, "lng": 103.754888, "copeE": null, "copeF": null, "copeG": null}, {"id": "WWS081", "name": "Woodlands Rd/Sg Kadut Ave", "lat": 1.4079707, "lng": 103.7557877, "copeE": null, "copeF": null, "copeG": null}, {"id": "WWS175", "name": "Woodlands Road/ Mandai Estate", "lat": 1.40719781, "lng": 103.7562849, "copeE": null, "copeF": null, "copeG": null}, {"id": "WWS292", "name": "Bt Batok Industrial Park A OD (Unity Center)", "lat": 1.337657, "lng": 103.75636, "copeE": null, "copeF": null, "copeG": null}, {"id": "WWS061", "name": "Woodlands Rd / KJE", "lat": 1.386982, "lng": 103.756862, "copeE": null, "copeF": null, "copeG": null}, {"id": "WWS382", "name": "Kranji Loop (Timmac@Kranji)", "lat": 1.4368371, "lng": 103.7574745, "copeE": null, "copeF": null, "copeG": null}, {"id": "WWS260", "name": "Sg Pang Sua Western Drain (Teck Whye View)", "lat": 1.38208, "lng": 103.757632, "copeE": null, "copeF": null, "copeG": null}, {"id": "WWS293", "name": "Toh Tuck OD (Secom Centre)", "lat": 1.334912, "lng": 103.758996, "copeE": null, "copeF": null, "copeG": null}, {"id": "WWS462", "name": "Toh Tuck OD (Toh Tuck Ave)", "lat": 1.334995, "lng": 103.759237, "copeE": null, "copeF": null, "copeG": null}, {"id": "WWS261", "name": "Gombar OD (Choa Chu Kang Rd)", "lat": 1.3796028, "lng": 103.759726, "copeE": null, "copeF": null, "copeG": null}, {"id": "WWS040", "name": "Sg Bangkong (West Coast Rd)", "lat": 1.310855, "lng": 103.759923, "copeE": null, "copeF": null, "copeG": null}, {"id": "WWS262", "name": "Gombar OD (Galistan Ave)", "lat": 1.37873379, "lng": 103.760087, "copeE": null, "copeF": null, "copeG": null}, {"id": "WWS459", "name": "Hillview Ave OD2 (Meralodge)", "lat": 1.353804, "lng": 103.760292, "copeE": null, "copeF": null, "copeG": null}, {"id": "WWS038", "name": "Sg Pang Sua (Bt Panjang)", "lat": 1.381099, "lng": 103.761277, "copeE": null, "copeF": null, "copeG": null}, {"id": "WWS434", "name": "Clementi OD15 (Lempeng Dr)", "lat": 1.321015, "lng": 103.761408, "copeE": null, "copeF": null, "copeG": null}, {"id": "WWS263", "name": "Upper Bt Timah OD (Woodlands Rd)", "lat": 1.38023952, "lng": 103.761471, "copeE": null, "copeF": null, "copeG": null}, {"id": "WWS456", "name": "Sg Bangkong (Blk 508 West Coast Dr)", "lat": 1.312572, "lng": 103.761828, "copeE": null, "copeF": null, "copeG": null}, {"id": "EWS025", "name": "Sg Mandai (Woodlands Rd)", "lat": 1.426591, "lng": 103.761881, "copeE": null, "copeF": null, "copeG": null}, {"id": "WWS264", "name": "Sg Pang Sua Sub Drain E (Mandai Rd)", "lat": 1.410518, "lng": 103.762476, "copeE": null, "copeF": null, "copeG": null}, {"id": "WWS265", "name": "Sg Pang Sua SD E (Mandai Rd)", "lat": 1.410959, "lng": 103.76271, "copeE": null, "copeF": null, "copeG": null}, {"id": "WWS098", "name": "Sg Pandan Kechil (West Coast Highway)", "lat": 1.3015, "lng": 103.76318, "copeE": null, "copeF": null, "copeG": null}, {"id": "WWS266", "name": "Upp Bt Timah OD (The Linear)", "lat": 1.374358, "lng": 103.763291, "copeE": null, "copeF": null, "copeG": null}, {"id": "WWS438", "name": "Gombak OD (Gombak Base)", "lat": 1.369289, "lng": 103.763615, "copeE": null, "copeF": null, "copeG": null}, {"id": "WWS449", "name": "Commonwealth Ave West/Clementi Close", "lat": 1.3169065, "lng": 103.7642102, "copeE": null, "copeF": null, "copeG": null}, {"id": "WWS097", "name": "Sg Pandan Kechil(Clementi West Street 2)", "lat": 1.302088, "lng": 103.764653, "copeE": null, "copeF": null, "copeG": null}, {"id": "WWS103", "name": "Cashew OD (ESPA)", "lat": 1.369412, "lng": 103.764809, "copeE": null, "copeF": null, "copeG": null}, {"id": "WWS102", "name": "Cashew OD (Cashew MRT)", "lat": 1.369997, "lng": 103.764848, "copeE": null, "copeF": null, "copeG": null}, {"id": "WWS465", "name": "Kismis OD ( Lor Kismis)", "lat": 1.336469, "lng": 103.765007, "copeE": null, "copeF": null, "copeG": null}, {"id": "WWS067", "name": "Clementi Ave 4 / Commonwealth Ave West", "lat": 1.316186, "lng": 103.765245, "copeE": null, "copeF": null, "copeG": null}, {"id": "WWS268", "name": "Gombak OD (Hillview Ave)", "lat": 1.365279, "lng": 103.765482, "copeE": null, "copeF": null, "copeG": null}, {"id": "WWS046", "name": "Upp Bt Timah Rd (St Joseph Church)", "lat": 1.367546, "lng": 103.766025, "copeE": null, "copeF": null, "copeG": null}, {"id": "WWS084", "name": "Sunset Dr/Sunset way", "lat": 1.32586, "lng": 103.766071, "copeE": null, "copeF": null, "copeG": null}, {"id": "WWS269", "name": "Fajar Rd OD (Blk 410 Saujana Rd)", "lat": 1.382701, "lng": 103.767053, "copeE": null, "copeF": null, "copeG": null}, {"id": "WWS270", "name": "Upp Bt Timah OD (CHIJ)", "lat": 1.366078, "lng": 103.76714, "copeE": null, "copeF": null, "copeG": null}, {"id": "WWS016", "name": "Sg Ulu Pandan (Sunset Walk)", "lat": 1.322861, "lng": 103.767295, "copeE": null, "copeF": null, "copeG": null}, {"id": "WWS271", "name": "Dairy Farm OD (Hillview MRT)", "lat": 1.362678, "lng": 103.76764, "copeE": null, "copeF": null, "copeG": null}, {"id": "WWS272", "name": "Zhenghua Rd OD (Blk 402 Fajar Rd)", "lat": 1.380177, "lng": 103.767804, "copeE": null, "copeF": null, "copeG": null}, {"id": "WWS069", "name": "Clementi Rd/Pasir Panjang Rd", "lat": 1.2925161, "lng": 103.7683145, "copeE": null, "copeF": null, "copeG": null}, {"id": "WWS070", "name": "Eng Kong Crescent", "lat": 1.33541, "lng": 103.7683341, "copeE": null, "copeF": null, "copeG": null}, {"id": "WWS066", "name": "Clementi Rd / West Coast Rd", "lat": 1.293455, "lng": 103.768636, "copeE": null, "copeF": null, "copeG": null}, {"id": "WWS071", "name": "Neo Pee Teck Lane / Pasir Panjang Rd", "lat": 1.292287, "lng": 103.768683, "copeE": null, "copeF": null, "copeG": null}, {"id": "WWS412", "name": "Neo Pee Teck Lane (Unit 5)", "lat": 1.292272355, "lng": 103.7686952, "copeE": null, "copeF": null, "copeG": null}, {"id": "WWS414", "name": "Neo Pee Teck Lane / Pasir Panjang Road", "lat": 1.29222619, "lng": 103.7687713, "copeE": null, "copeF": null, "copeG": null}, {"id": "WWS411", "name": "Clementi Road / Pasir Panjang Road", "lat": 1.2932232, "lng": 103.7688021, "copeE": null, "copeF": null, "copeG": null}, {"id": "EWS074", "name": "Sungei Mandai Kechil(Woodlands Bridge)", "lat": 1.439585, "lng": 103.76881, "copeE": null, "copeF": null, "copeG": null}, {"id": "WWS413", "name": "Neo Pee Teck Lane / Pasir Panjang Road", "lat": 1.2923882, "lng": 103.7688813, "copeE": null, "copeF": null, "copeG": null}, {"id": "EWS332", "name": "Sg Mandai Kechil (Woodlands Centre Rd)", "lat": 1.438913, "lng": 103.769354, "copeE": null, "copeF": null, "copeG": null}, {"id": "WWS086", "name": "Clementi Rd / Sunset Lane", "lat": 1.320677, "lng": 103.769608, "copeE": null, "copeF": null, "copeG": null}, {"id": "WWS090", "name": "University Flyover / AYE1", "lat": 1.3052894, "lng": 103.7700051, "copeE": null, "copeF": null, "copeG": null}, {"id": "WWS273", "name": "Segar OD1 (KJE)", "lat": 1.390177, "lng": 103.770134, "copeE": null, "copeF": null, "copeG": null}, {"id": "WWS085", "name": "Sg Pandan Kechil (AYE)", "lat": 1.304283, "lng": 103.77014, "copeE": null, "copeF": null, "copeG": null}, {"id": "WWS274", "name": "Fajar Rd OD (Blk 488A)", "lat": 1.389699, "lng": 103.770916, "copeE": null, "copeF": null, "copeG": null}, {"id": "WWS275", "name": "Chestnut Dr OD (Jln Emas Urai)", "lat": 1.367744, "lng": 103.771104, "copeE": null, "copeF": null, "copeG": null}, {"id": "EWS327", "name": "Sg Mandai Kechil (Woodlands St 13)", "lat": 1.43587401, "lng": 103.771126, "copeE": null, "copeF": null, "copeG": null}, {"id": "WWS276", "name": "Zhenghua Rd OD (Blk 123 Pending Rd)", "lat": 1.377499, "lng": 103.771225, "copeE": null, "copeF": null, "copeG": null}, {"id": "WWS099", "name": "Ulu Pandan Rd / Clementi Rd", "lat": 1.3194474, "lng": 103.7714076, "copeE": null, "copeF": null, "copeG": null}, {"id": "EWS306", "name": "Sg Mandai Kechil (Marsiling Pk)", "lat": 1.433759, "lng": 103.772195, "copeE": null, "copeF": null, "copeG": null}, {"id": "WWS409", "name": "West Coast OD 3A( Blk 385)", "lat": 1.2899383, "lng": 103.7722142, "copeE": null, "copeF": null, "copeG": null}, {"id": "WWS312", "name": "Bt Timah 1st Diversion Canal (Pine Grove)", "lat": 1.318603, "lng": 103.772563, "copeE": null, "copeF": null, "copeG": null}, {"id": "WWS450", "name": "Sg Pandan Kechil (Clementi Rd)", "lat": 1.303095, "lng": 103.772732, "copeE": null, "copeF": null, "copeG": null}, {"id": "WWS294", "name": "Ulu Pandan Canal (Clementi Rd)", "lat": 1.317491, "lng": 103.773213, "copeE": null, "copeF": null, "copeG": null}, {"id": "WWS410", "name": "West Coast OD 3(Blk 373)", "lat": 1.2899102, "lng": 103.773315, "copeE": null, "copeF": null, "copeG": null}, {"id": "WWS060", "name": "Sg Pandan Kechil (College Link)", "lat": 1.302878, "lng": 103.773364, "copeE": null, "copeF": null, "copeG": null}, {"id": "EWS026", "name": "Sg Mandai Kechil (Woodlands Ave 3)", "lat": 1.432771, "lng": 103.773771, "copeE": null, "copeF": null, "copeG": null}, {"id": "EWS285", "name": "Mandai Camp OD (Mandai Rd)", "lat": 1.409994, "lng": 103.773958, "copeE": null, "copeF": null, "copeG": null}, {"id": "WWS059", "name": "Sg Pandan Kechil (AYE 9.2km)", "lat": 1.302919, "lng": 103.774067, "copeE": null, "copeF": null, "copeG": null}, {"id": "WWS021", "name": "Ulu Pandan Canal (Pine Grove)", "lat": 1.315998, "lng": 103.775243, "copeE": null, "copeF": null, "copeG": null}, {"id": "WWS278", "name": "Chestnut Dr OD (Petir Rd)", "lat": 1.367498, "lng": 103.775262, "copeE": null, "copeF": null, "copeG": null}, {"id": "EWS061", "name": "Marsiling Dr / Admiralty Rd", "lat": 1.442321, "lng": 103.775441, "copeE": null, "copeF": null, "copeG": null}, {"id": "EWS333", "name": "Sg Mandai Kechil (Woodlands St 1 BLk 168)", "lat": 1.43274273, "lng": 103.776068, "copeE": null, "copeF": null, "copeG": null}, {"id": "WWS279", "name": "Zhenghua Rd OD (Blk 211 Petir Rd)", "lat": 1.3752514, "lng": 103.7765819, "copeE": null, "copeF": null, "copeG": null}, {"id": "WWS042", "name": "Sg Pandan Kechil (NUS)", "lat": 1.300823, "lng": 103.776755, "copeE": null, "copeF": null, "copeG": null}, {"id": "EWS334", "name": "Sg Cina (Admiralty Rd culvert outlet)", "lat": 1.451017, "lng": 103.777027, "copeE": null, "copeF": null, "copeG": null}, {"id": "WWS385", "name": "Commonwealth Ave West (Dover MRT)", "lat": 1.311647, "lng": 103.778198, "copeE": null, "copeF": null, "copeG": null}, {"id": "EWS340", "name": "Sg Mandai (Mandai Rd downstream)", "lat": 1.411, "lng": 103.778207, "copeE": null, "copeF": null, "copeG": null}, {"id": "WWS296", "name": "Ulu Pandan Canal (144 Holland Grove View)", "lat": 1.313166, "lng": 103.778471, "copeE": null, "copeF": null, "copeG": null}, {"id": "EWS335", "name": "Sg Mandai Kechil (Woodlands St 12 culvert outlet)", "lat": 1.432793, "lng": 103.778881, "copeE": null, "copeF": null, "copeG": null}, {"id": "EWS341", "name": "Sg Mandai (Mandai Lake Rd upstream)", "lat": 1.409141, "lng": 103.779502, "copeE": null, "copeF": null, "copeG": null}, {"id": "EWS336", "name": "Sg Mandai Kechil (Woodlands St 12 culvert inlet)", "lat": 1.433041, "lng": 103.77964, "copeE": null, "copeF": null, "copeG": null}, {"id": "WWS023", "name": "Jln Bingka", "lat": 1.34082, "lng": 103.779868, "copeE": null, "copeF": null, "copeG": null}, {"id": "WWS005", "name": "Bt Timah Canal (Rifle Range Rd)", "lat": 1.336735, "lng": 103.781557, "copeE": null, "copeF": null, "copeG": null}, {"id": "EWS338", "name": "Sg Mandai Kechil (Woodlands Ave 3 culvert outlet)", "lat": 1.434431, "lng": 103.781696, "copeE": null, "copeF": null, "copeG": null}, {"id": "WWS053", "name": "Bt Timah 1st Div Canal (Ewart Park)", "lat": 1.326884, "lng": 103.782169, "copeE": null, "copeF": null, "copeG": null}, {"id": "WWS058", "name": "Sg Pandan Kechil (Lower Kent Ridge Rd)", "lat": 1.297361, "lng": 103.7825141, "copeE": null, "copeF": null, "copeG": null}, {"id": "EWS339", "name": "Sg Mandai Kechil (Woodlands Ave 3 culvert inlet)", "lat": 1.434385, "lng": 103.78265, "copeE": null, "copeF": null, "copeG": null}, {"id": "WWS057", "name": "Sg Pandan Kechil (AYE 7.9km)", "lat": 1.297940016, "lng": 103.7829971, "copeE": null, "copeF": null, "copeG": null}, {"id": "WWS045", "name": "Sime Darby Centre", "lat": 1.3364909, "lng": 103.78322, "copeE": null, "copeF": null, "copeG": null}, {"id": "WWS297", "name": "Ulu Pandan Canal (9 Holland Grove View)", "lat": 1.311463, "lng": 103.783356, "copeE": null, "copeF": null, "copeG": null}, {"id": "WWS316", "name": "15A Yarwood Avenue, Singapore", "lat": 1.338561, "lng": 103.783423, "copeE": null, "copeF": null, "copeG": null}, {"id": "WWS314", "name": "Bt Timah 1st Diversion Canal (Holland Green)", "lat": 1.326841, "lng": 103.783825, "copeE": null, "copeF": null, "copeG": null}, {"id": "EWS343", "name": "Sg Mandai Kechil (Woodlands Ave 1 Blk 352)", "lat": 1.431382, "lng": 103.784087, "copeE": null, "copeF": null, "copeG": null}, {"id": "EWS307", "name": "Sg Mandai Kechil (Woodlands Ave 1 Esso)", "lat": 1.43112, "lng": 103.784274, "copeE": null, "copeF": null, "copeG": null}, {"id": "WWS011", "name": "Grove Dr", "lat": 1.3118131, "lng": 103.7843681, "copeE": null, "copeF": null, "copeG": null}, {"id": "WWS298", "name": "Ulu Pandan Canal (Commonwealth Ave West)", "lat": 1.309368, "lng": 103.786781, "copeE": null, "copeF": null, "copeG": null}, {"id": "EWS062", "name": "Woodlands Ave 2 / SLE", "lat": 1.427701, "lng": 103.78685, "copeE": null, "copeF": null, "copeG": null}, {"id": "EWS344", "name": "Sg Mandai Kechil (Woodland Ave 2)", "lat": 1.429402, "lng": 103.787218, "copeE": null, "copeF": null, "copeG": null}, {"id": "WWS453", "name": "Ayer Rajah Cres/North Buona Vista Rd", "lat": 1.293529, "lng": 103.78734, "copeE": null, "copeF": null, "copeG": null}, {"id": "WWS441", "name": "Ayer Rajah Ind Est OD (ABB)", "lat": 1.2944778, "lng": 103.7883407, "copeE": null, "copeF": null, "copeG": null}, {"id": "WWS313", "name": "Bt Timah 1st Diversion Canal (Garlick Ave)", "lat": 1.327221, "lng": 103.789526, "copeE": null, "copeF": null, "copeG": null}, {"id": "WWS415", "name": "Bt Timah Canal (Ascot Rise)", "lat": 1.3338627, "lng": 103.7896053, "copeE": null, "copeF": null, "copeG": null}, {"id": "WWS299", "name": "Ulu Pandan Canal (Buona Vista MRT station)", "lat": 1.307565, "lng": 103.789949, "copeE": null, "copeF": null, "copeG": null}, {"id": "EWS369", "name": "Dahan Rd/Admiralty Rd West (d/s culvert)", "lat": 1.4523147, "lng": 103.7899493, "copeE": null, "copeF": null, "copeG": null}, {"id": "WWS440", "name": "Lim Tai See OD (Sixth Ave)", "lat": 1.321755, "lng": 103.790664, "copeE": null, "copeF": null, "copeG": null}, {"id": "WWS301", "name": "Sg Nipah Tributary 2 (Soka Youth Centre)", "lat": 1.276942, "lng": 103.791058, "copeE": null, "copeF": null, "copeG": null}, {"id": "WWS022", "name": "Jln Mat Jambol", "lat": 1.277007, "lng": 103.79132, "copeE": null, "copeF": null, "copeG": null}, {"id": "EWS394", "name": "Attap Valley OD Sea Side Outfall - Radar", "lat": 1.4619825, "lng": 103.7917984, "copeE": null, "copeF": null, "copeG": null}, {"id": "EWS393", "name": "Attap Valley OD Inland Outfall", "lat": 1.461956, "lng": 103.791811, "copeE": null, "copeF": null, "copeG": null}, {"id": "WWS181", "name": "Yee Siang Road/ W Coast Hwy", "lat": 1.2769315, "lng": 103.7923764, "copeE": null, "copeF": null, "copeG": null}, {"id": "WWS303", "name": "Sg Nipah (Currency House)", "lat": 1.275083, "lng": 103.792516, "copeE": null, "copeF": null, "copeG": null}, {"id": "WWS004", "name": "Bt Timah Canal (Maple Ave)", "lat": 1.332772, "lng": 103.792755, "copeE": null, "copeF": null, "copeG": null}, {"id": "WWS384", "name": "Pepys Rd/Pasir Panjang Rd (Westpoint Condo)", "lat": 1.2762457, "lng": 103.793576, "copeE": null, "copeF": null, "copeG": null}, {"id": "CWS078", "name": "Bt Timah Canal (Anamalai Ave)", "lat": 1.3321194, "lng": 103.7941755, "copeE": null, "copeF": null, "copeG": null}, {"id": "WWS302", "name": "Sg Nipah (Unit 31)", "lat": 1.273847, "lng": 103.794255, "copeE": null, "copeF": null, "copeG": null}, {"id": "WWS304", "name": "Sg Nipah Tributary 1 (Jln Pelepah)", "lat": 1.274487, "lng": 103.794336, "copeE": null, "copeF": null, "copeG": null}, {"id": "WWS396", "name": "Pasir Panjang Rd/Jln Pelepah D/s", "lat": 1.2750596, "lng": 103.7949927, "copeE": null, "copeF": null, "copeG": null}, {"id": "WWS356", "name": "Pasir Panjang Rd (Opp Harbourside Bldg)", "lat": 1.2746623, "lng": 103.7961848, "copeE": null, "copeF": null, "copeG": null}, {"id": "WWS370", "name": "Pasir Panjang Rd/Boon Leat Terrace U/s", "lat": 1.2749128, "lng": 103.7965356, "copeE": null, "copeF": null, "copeG": null}, {"id": "WWS013", "name": "Jln Haji Alias/ Jln Siantan", "lat": 1.321613, "lng": 103.796824, "copeE": null, "copeF": null, "copeG": null}, {"id": "WWS009", "name": "Commonwealth Ave / Commonwealth Dr", "lat": 1.303684, "lng": 103.797218, "copeE": null, "copeF": null, "copeG": null}, {"id": "WWS008", "name": "Commonwealth Ave/ Tanglin Halt Rd", "lat": 1.303122, "lng": 103.797286, "copeE": null, "copeF": null, "copeG": null}, {"id": "WWS120", "name": "Commonwealth Lane (CERTIS)", "lat": 1.304533, "lng": 103.7974, "copeE": null, "copeF": null, "copeG": null}, {"id": "WWS108", "name": "Commonwealth Lane / Commonwealth Dr", "lat": 1.3043539, "lng": 103.7974324, "copeE": null, "copeF": null, "copeG": null}, {"id": "WWS121", "name": "Commonwealth Dr (Blk 402)", "lat": 1.303454, "lng": 103.797476, "copeE": null, "copeF": null, "copeG": null}, {"id": "WWS107", "name": "Commonwealth Drive / Commonwealth Lane", "lat": 1.303718, "lng": 103.797571, "copeE": null, "copeF": null, "copeG": null}, {"id": "CWS039", "name": "Sg Namly", "lat": 1.322988, "lng": 103.798145, "copeE": null, "copeF": null, "copeG": null}, {"id": "CWS065", "name": "Eng Neo OD (Eng Neo Ave)", "lat": 1.331943, "lng": 103.798273, "copeE": null, "copeF": null, "copeG": null}, {"id": "EWS324", "name": "Sg Sembawang (Woodlands Ave 1)", "lat": 1.42676, "lng": 103.798319, "copeE": null, "copeF": null, "copeG": null}, {"id": "EWS345", "name": "Sg Sembawang (Woodlands Height)", "lat": 1.427461, "lng": 103.799021, "copeE": null, "copeF": null, "copeG": null}, {"id": "CWS090", "name": "Stirling Rd OD (Alexandra Rd)", "lat": 1.2841338, "lng": 103.8005488, "copeE": null, "copeF": null, "copeG": null}, {"id": "CWS131", "name": "Stirling Outlet Drain(Queensway)", "lat": 1.2917008, "lng": 103.8005675, "copeE": null, "copeF": null, "copeG": null}, {"id": "CWS093", "name": "Stirling Rd OD (Warwick Rd)", "lat": 1.284623, "lng": 103.800701, "copeE": null, "copeF": null, "copeG": null}, {"id": "EWS267", "name": "SLE (Mandai Bus Depot)", "lat": 1.417906, "lng": 103.801699, "copeE": null, "copeF": null, "copeG": null}, {"id": "CWS105", "name": "PIE 22.5km", "lat": 1.343305, "lng": 103.80271, "copeE": null, "copeF": null, "copeG": null}, {"id": "WWS001", "name": "Alexandra Rd/ Telok Blangah Rd", "lat": 1.27286, "lng": 103.802931, "copeE": null, "copeF": null, "copeG": null}, {"id": "CWS038", "name": "Stirling Rd OD (Mei Chin Rd)", "lat": 1.295753, "lng": 103.803991, "copeE": null, "copeF": null, "copeG": null}, {"id": "EWS346", "name": "Sg Sembawang Kechil (783B)", "lat": 1.446845, "lng": 103.804277, "copeE": null, "copeF": null, "copeG": null}, {"id": "CWS086", "name": "Dunearn Rd / Hillcrest Rd", "lat": 1.3277872, "lng": 103.8059192, "copeE": null, "copeF": null, "copeG": null}, {"id": "CWS406", "name": "Queens Rd OD (Empress Rd)", "lat": 1.3174594, "lng": 103.806595, "copeE": null, "copeF": null, "copeG": null}, {"id": "EWS001", "name": "Admiralty Rd West/ Senoko South Rd", "lat": 1.4607974, "lng": 103.8067799, "copeE": null, "copeF": null, "copeG": null}, {"id": "CWS171", "name": "Tan Kah Kee Detention Tank (Stop Lock C)", "lat": 1.3264548, "lng": 103.8072881, "copeE": null, "copeF": null, "copeG": null}, {"id": "CWS160", "name": "Bt Timah Canal (Watten Park)", "lat": 1.3263412, "lng": 103.8073388, "copeE": null, "copeF": null, "copeG": null}, {"id": "CWS172", "name": "Tan Kah Kee Detention Tank (Stop Lock B)", "lat": 1.3263134, "lng": 103.8075389, "copeE": null, "copeF": null, "copeG": null}, {"id": "EWS347", "name": "Sg Sembawang (Woodlands lane culvert inlet)", "lat": 1.438324, "lng": 103.80853, "copeE": null, "copeF": null, "copeG": null}, {"id": "EWS349", "name": "Sg Sembawang OD1(W'lands Sunny Food)", "lat": 1.462501, "lng": 103.808932, "copeE": null, "copeF": null, "copeG": null}, {"id": "EWS348", "name": "Sg Sembawang (Woodlands lane culvert outlet)", "lat": 1.438999, "lng": 103.808995, "copeE": null, "copeF": null, "copeG": null}, {"id": "CWS438", "name": "Alexandra Canal Sub Drain A (Leng Kee Rd)", "lat": 1.29120688, "lng": 103.80939, "copeE": null, "copeF": null, "copeG": null}, {"id": "CWS437", "name": "Kay Siang OD (Margaret Dr)", "lat": 1.2966847, "lng": 103.809432, "copeE": null, "copeF": null, "copeG": null}, {"id": "EWS379", "name": "Sg Sembawang (Admiralty Rd West D/S)", "lat": 1.462851, "lng": 103.809513, "copeE": null, "copeF": null, "copeG": null}, {"id": "CWS034", "name": "Queen Rd OD (Prince Rd)", "lat": 1.3209725, "lng": 103.8097551, "copeE": null, "copeF": null, "copeG": null}, {"id": "CWS487", "name": "Woollerton Dr U/S Culvert", "lat": 1.317139, "lng": 103.809801, "copeE": null, "copeF": null, "copeG": null}, {"id": "CWS013", "name": "Bt Timah Canal (Prince of Wales Rd)", "lat": 1.3246005, "lng": 103.8098205, "copeE": null, "copeF": null, "copeG": null}, {"id": "CWS488", "name": "Woollerton Dr D/S Culvert", "lat": 1.31728, "lng": 103.81003, "copeE": null, "copeF": null, "copeG": null}, {"id": "EWS378", "name": "Sg Sembawang (Admiralty Rd West U/S)", "lat": 1.461585, "lng": 103.81028, "copeE": null, "copeF": null, "copeG": null}, {"id": "EWS027", "name": "Sg Sembwang Kechil (Woodlands Loop)", "lat": 1.4497787, "lng": 103.8108712, "copeE": null, "copeF": null, "copeG": null}, {"id": "CWS486", "name": "Kay Siang OD (89B Dawson Rd)", "lat": 1.2960083, "lng": 103.810887, "copeE": null, "copeF": null, "copeG": null}, {"id": "EWS010", "name": "Gambas Ave/Woodlands Ave 12", "lat": 1.4443879, "lng": 103.8110191, "copeE": null, "copeF": null, "copeG": null}, {"id": "EWS350", "name": "Sg Sembawang (Woodlands Sector 2)", "lat": 1.45991, "lng": 103.811047, "copeE": null, "copeF": null, "copeG": null}, {"id": "CWS405", "name": "Queens Rd OD (Crown Centre)", "lat": 1.323249, "lng": 103.811084, "copeE": null, "copeF": null, "copeG": null}, {"id": "EWS063", "name": "Woodlands Ave 12 / Gambas Ave", "lat": 1.444062, "lng": 103.811168, "copeE": null, "copeF": null, "copeG": null}, {"id": "EWS351", "name": "Sg Sembawang (Gambas Ave)", "lat": 1.444842, "lng": 103.811388, "copeE": null, "copeF": null, "copeG": null}, {"id": "WWS439", "name": "Bt Chermin Canal (St Andrew's Nursing Home)", "lat": 1.2717134, "lng": 103.8117042, "copeE": null, "copeF": null, "copeG": null}, {"id": "CWS439", "name": "Alexandra Canal Sub Drain A (Leng Kee Autopoint)", "lat": 1.2919146, "lng": 103.812098, "copeE": null, "copeF": null, "copeG": null}, {"id": "EWS353", "name": "Sg Sembawang (Ark Gambas)", "lat": 1.445219, "lng": 103.812201, "copeE": null, "copeF": null, "copeG": null}, {"id": "CWS440", "name": "Alexandra Canal Sub Drain A (Alexandra Rd)", "lat": 1.292464, "lng": 103.812327, "copeE": null, "copeF": null, "copeG": null}, {"id": "EWS331", "name": "Admiralty St OD (North Link Bldg)", "lat": 1.4609514, "lng": 103.8125944, "copeE": null, "copeF": null, "copeG": null}, {"id": "EWS352", "name": "Sg Sembawang (466 Sembawang Dr)", "lat": 1.455804, "lng": 103.812842, "copeE": null, "copeF": null, "copeG": null}, {"id": "EWS315", "name": "Sg Sembawang (Canberra Sec Sch)", "lat": 1.452766, "lng": 103.812958, "copeE": null, "copeF": null, "copeG": null}, {"id": "WWS371", "name": "West Coast H'way (Liftech Industries)", "lat": 1.2701664, "lng": 103.8129831, "copeE": null, "copeF": null, "copeG": null}, {"id": "EWS309", "name": "Sg Seletar (Mandai Rd Track 7)", "lat": 1.399631, "lng": 103.813842, "copeE": null, "copeF": null, "copeG": null}, {"id": "CWS063", "name": "Adam Rd OD (Camden Pk)", "lat": 1.329084, "lng": 103.814436, "copeE": null, "copeF": null, "copeG": null}, {"id": "WWS386", "name": "Telok Blangah Rd/Wishart Rd", "lat": 1.26878, "lng": 103.815413, "copeE": null, "copeF": null, "copeG": null}, {"id": "CWS389", "name": "Alexandra canal SD B (Bt Merah cc)", "lat": 1.284883, "lng": 103.815471, "copeE": null, "copeF": null, "copeG": null}, {"id": "CWS390", "name": "Jln Bukit Merah OD (Gan Eng Seng Pri Sch)", "lat": 1.286498, "lng": 103.816363, "copeE": null, "copeF": null, "copeG": null}, {"id": "EWS310", "name": "Sg Seletar (Upp Thomson Rd)", "lat": 1.400425, "lng": 103.81697, "copeE": null, "copeF": null, "copeG": null}, {"id": "CWS391", "name": "Alexandra Canal SD B (Redhill Rd Blk 73)", "lat": 1.287659, "lng": 103.817076, "copeE": null, "copeF": null, "copeG": null}, {"id": "EWS007", "name": "Meng Suan OD (Mandai Rd)", "lat": 1.4024893, "lng": 103.8173045, "copeE": null, "copeF": null, "copeG": null}, {"id": "CWS407", "name": "Bt Timah Canal (University Road)", "lat": 1.3230101, "lng": 103.817306, "copeE": null, "copeF": null, "copeG": null}, {"id": "EWS271", "name": "Sg Seletar (Thong Soon Green)", "lat": 1.400669, "lng": 103.817422, "copeE": null, "copeF": null, "copeG": null}, {"id": "CWS037", "name": "Stamford Canal Tributary 1 (MindenRd)", "lat": 1.3063392, "lng": 103.8174416, "copeE": null, "copeF": null, "copeG": null}, {"id": "CWS392", "name": "Alexandra Canal SD B (Tiong Bahru Rd/Shell)", "lat": 1.28852, "lng": 103.819049, "copeE": null, "copeF": null, "copeG": null}, {"id": "CWS393", "name": "Alexandra Canal SD B (Delta Swimming Complex)", "lat": 1.288996, "lng": 103.8191031, "copeE": null, "copeF": null, "copeG": null}, {"id": "CWS394", "name": "Alexandra Canal SD B(Alexandra Rd U/S)", "lat": 1.2910565, "lng": 103.8193156, "copeE": null, "copeF": null, "copeG": null}, {"id": "CWS395", "name": "Alexandra Canal SD B (Alexandra Rd D/s)", "lat": 1.29138, "lng": 103.819465, "copeE": null, "copeF": null, "copeG": null}, {"id": "CWS001", "name": "Alexandra Canal SD B (Prince Philip Ave)", "lat": 1.2918496, "lng": 103.8195177, "copeE": null, "copeF": null, "copeG": null}, {"id": "CWS041", "name": "Camp Rd OD (Rochalie Dr)", "lat": 1.302066, "lng": 103.819912, "copeE": null, "copeF": null, "copeG": null}, {"id": "EWS273", "name": "Sg Seletar (Nee Soon Rd)", "lat": 1.4004608, "lng": 103.8209666, "copeE": null, "copeF": null, "copeG": null}, {"id": "EWS014", "name": "Sg Seletar (Nee Soon Rd)", "lat": 1.4010574, "lng": 103.8214231, "copeE": null, "copeF": null, "copeG": null}, {"id": "CWS421", "name": "Bishopsgate OD (Unit 18)", "lat": 1.2953843, "lng": 103.8220883, "copeE": null, "copeF": null, "copeG": null}, {"id": "CWS232", "name": "Bishopgate OD (38)", "lat": 1.2940722, "lng": 103.8224212, "copeE": null, "copeF": null, "copeG": null}, {"id": "CWS083", "name": "Alexandra Canal (Prince Charles Crescent)", "lat": 1.2921375, "lng": 103.822838, "copeE": null, "copeF": null, "copeG": null}, {"id": "CWS003", "name": "Henderson Rd / Henderson Cres", "lat": 1.2894161, "lng": 103.822906, "copeE": null, "copeF": null, "copeG": null}, {"id": "CWS422", "name": "Bishopsgate OD (Jervois Petit)", "lat": 1.2929095, "lng": 103.8230031, "copeE": null, "copeF": null, "copeG": null}, {"id": "CWS396", "name": "Alexandra Canal SD C (Gan Eng Seng Sch)", "lat": 1.2905532, "lng": 103.8232154, "copeE": null, "copeF": null, "copeG": null}, {"id": "CWS231", "name": "Jervois Rd (30A)", "lat": 1.293334, "lng": 103.82343, "copeE": null, "copeF": null, "copeG": null}, {"id": "EWS276", "name": "Sg Simpang Kanan Drain A (Jln Tampang)", "lat": 1.442352, "lng": 103.823761, "copeE": null, "copeF": null, "copeG": null}, {"id": "CWS145", "name": "Lower Delta Rd/ Jln Bukit Merah", "lat": 1.283290029, "lng": 103.8239975, "copeE": null, "copeF": null, "copeG": null}, {"id": "EWS053", "name": "Sembawang Rd / Jalan Jeruju", "lat": 1.4419291, "lng": 103.8242511, "copeE": null, "copeF": null, "copeG": null}, {"id": "CWS344", "name": "Alexandra Canal Sub Drain C (Tiong Bahru Rd)", "lat": 1.286938, "lng": 103.824471, "copeE": null, "copeF": null, "copeG": null}, {"id": "CWS146", "name": "The Regent Singapore / Tanglin Mall", "lat": 1.3048295, "lng": 103.8245988, "copeE": null, "copeF": null, "copeG": null}, {"id": "CWS244", "name": "Bt Timah Canal (Raffles Town Club)", "lat": 1.3210265, "lng": 103.824775, "copeE": null, "copeF": null, "copeG": null}, {"id": "CWS345", "name": "Alexandra Canal Sub Drain C (Lower Delta Rd)", "lat": 1.286202, "lng": 103.825012, "copeE": null, "copeF": null, "copeG": null}, {"id": "EWS291", "name": "Sembawang OD2 (Seletaris)", "lat": 1.435355, "lng": 103.825072, "copeE": null, "copeF": null, "copeG": null}, {"id": "CWS346", "name": "Stamford Canal Tributary 1 (Tanglin Place)", "lat": 1.3051946, "lng": 103.8253, "copeE": null, "copeF": null, "copeG": null}, {"id": "CWS099", "name": "Cuscaden Rd /Tomlinson", "lat": 1.304627, "lng": 103.825388, "copeE": null, "copeF": null, "copeG": null}, {"id": "CWS094", "name": "Delta Road/Delta Avenue", "lat": 1.292161, "lng": 103.825777, "copeE": null, "copeF": null, "copeG": null}, {"id": "WWS063", "name": "Kg Bahru Rd", "lat": 1.2709785, "lng": 103.8258698, "copeE": null, "copeF": null, "copeG": null}, {"id": "CWS132", "name": "Alexandra Canal(Delta Ave)", "lat": 1.29222, "lng": 103.826256, "copeE": null, "copeF": null, "copeG": null}, {"id": "CWS245", "name": "Whitley Rd OD (Merryn Dr)", "lat": 1.3240026, "lng": 103.826568, "copeE": null, "copeF": null, "copeG": null}, {"id": "EWS292", "name": "Sembawang OD2 (Yishun Ave 7)", "lat": 1.435947, "lng": 103.826744, "copeE": null, "copeF": null, "copeG": null}, {"id": "EWS308", "name": "Sg Seletar (Lentor Ave)", "lat": 1.402751, "lng": 103.826933, "copeE": null, "copeF": null, "copeG": null}, {"id": "CWS348", "name": "Stamford Canal Tributary 1 (Cuscaden Rd)", "lat": 1.3062433, "lng": 103.82735, "copeE": null, "copeF": null, "copeG": null}, {"id": "CWS141", "name": "Cuscaden Rd / Hard Rock Cafe", "lat": 1.30578939, "lng": 103.8278209, "copeE": null, "copeF": null, "copeG": null}, {"id": "CWS124", "name": "Kallang sub drain(Windsor Park Rd)", "lat": 1.3578026, "lng": 103.8282027, "copeE": null, "copeF": null, "copeG": null}, {"id": "CWS032", "name": "Stamford Canal (Forum)", "lat": 1.3067141, "lng": 103.828551, "copeE": null, "copeF": null, "copeG": null}, {"id": "CWS012", "name": "Bt Timah Canal (Robin Dr)", "lat": 1.319617, "lng": 103.828567, "copeE": null, "copeF": null, "copeG": null}, {"id": "CWS033", "name": "Stamford Canal (Orchard Tower)", "lat": 1.3066516, "lng": 103.8290935, "copeE": null, "copeF": null, "copeG": null}, {"id": "EWS287", "name": "Sembawang OD2 (Canberra Dr u/s culvert)", "lat": 1.438857, "lng": 103.829296, "copeE": null, "copeF": null, "copeG": null}, {"id": "CWS173", "name": "Bt Timah Canal (Leng Kwang Baptist Church)", "lat": 1.3194507, "lng": 103.829461, "copeE": null, "copeF": null, "copeG": null}, {"id": "EWS286", "name": "Sembawang OD2 (Canberra Dr d/s culvert)", "lat": 1.439564, "lng": 103.829561, "copeE": null, "copeF": null, "copeG": null}, {"id": "CWS349", "name": "Alexandra Canal Sub Drain D (Emerald Pk 2)", "lat": 1.289013, "lng": 103.829656, "copeE": null, "copeF": null, "copeG": null}, {"id": "CWS068", "name": "Indus Rd/ Ganges Ave", "lat": 1.2907053, "lng": 103.8296688, "copeE": null, "copeF": null, "copeG": null}, {"id": "CWS350", "name": "Alexandra Canal Sub Drain D (Emerald Pk 1)", "lat": 1.290223, "lng": 103.829678, "copeE": null, "copeF": null, "copeG": null}, {"id": "CWS351", "name": "Alexandra Canal Sub Drain F (Kim Tian Rd)", "lat": 1.283257, "lng": 103.82968, "copeE": null, "copeF": null, "copeG": null}, {"id": "CWS140", "name": "Tiong Bahru Rd / Boon Tiong Rd", "lat": 1.286028, "lng": 103.829825, "copeE": null, "copeF": null, "copeG": null}, {"id": "CWS353", "name": "Alexandra Canal SD D (Zion Rd)", "lat": 1.292031, "lng": 103.830072, "copeE": null, "copeF": null, "copeG": null}, {"id": "CWS354", "name": "Alexandra Canal Sub Drain F (Blk 8)", "lat": 1.28632, "lng": 103.83017, "copeE": null, "copeF": null, "copeG": null}, {"id": "CWS355", "name": "Stamford Diversion Canal (Hoot Kiam Rd)", "lat": 1.2976708, "lng": 103.830212, "copeE": null, "copeF": null, "copeG": null}, {"id": "CWS051", "name": "Alexandra Canal (Zion Rd)", "lat": 1.29235, "lng": 103.8305925, "copeE": null, "copeF": null, "copeG": null}, {"id": "CWS007", "name": "Balmoral Rd", "lat": 1.31396, "lng": 103.8312701, "copeE": null, "copeF": null, "copeG": null}, {"id": "CWS423", "name": "Zion Rd OD (Great World City)", "lat": 1.2928595, "lng": 103.8316356, "copeE": null, "copeF": null, "copeG": null}, {"id": "EWS293", "name": "Sembawang OD2 (Yishun Ind Pk A)", "lat": 1.442352, "lng": 103.831648, "copeE": null, "copeF": null, "copeG": null}, {"id": "CWS356", "name": "Alexandra Canal Subsidiary Drain F (Blk 5)", "lat": 1.286374, "lng": 103.831886, "copeE": null, "copeF": null, "copeG": null}, {"id": "WWS110", "name": "Kampung Bahru Road / Silat Road", "lat": 1.276542, "lng": 103.831896, "copeE": null, "copeF": null, "copeG": null}, {"id": "EWS317", "name": "Yishun Ave 3 OD (Blk 774)", "lat": 1.423061, "lng": 103.831923, "copeE": null, "copeF": null, "copeG": null}, {"id": "CWS357", "name": "Alexandra Canal Subsidiary Drain F (Blk 1)", "lat": 1.28628, "lng": 103.832762, "copeE": null, "copeF": null, "copeG": null}, {"id": "WWS182", "name": "Kampong Bahru (Bus Interchange)", "lat": 1.2762794, "lng": 103.8327764, "copeE": null, "copeF": null, "copeG": null}, {"id": "CWS048", "name": "Stamford Canal (Wisma Atria) s'pore", "lat": 1.304091, "lng": 103.833281, "copeE": null, "copeF": null, "copeG": null}, {"id": "CWS049", "name": "Stamford Canal (Lucky Plaza)", "lat": 1.3043, "lng": 103.833307, "copeE": null, "copeF": null, "copeG": null}, {"id": "EWS045", "name": "Thomson Walk", "lat": 1.3764121, "lng": 103.833445, "copeE": null, "copeF": null, "copeG": null}, {"id": "CWS174", "name": "Bt Timah Canal (ACS Sports Complex)", "lat": 1.318003, "lng": 103.833739, "copeE": null, "copeF": null, "copeG": null}, {"id": "EWS009", "name": "Sg Simpang Kiri (Sembwang OD No. 2)", "lat": 1.448881, "lng": 103.834033, "copeE": null, "copeF": null, "copeG": null}, {"id": "EWS318", "name": "Yishun Ave 3 OD (Yishun Swimming Complex)", "lat": 1.42303, "lng": 103.834088, "copeE": null, "copeF": null, "copeG": null}, {"id": "CWS360", "name": "Alexandra Canal Sub Drain F ( Zion Rd Shell)", "lat": 1.2866062, "lng": 103.834122, "copeE": null, "copeF": null, "copeG": null}, {"id": "CWS168", "name": "Upp Thomson Rd/ Jln Keli", "lat": 1.3541568, "lng": 103.8343446, "copeE": null, "copeF": null, "copeG": null}, {"id": "EWS030", "name": "Sg Seletar Simpang Kanan A (SLE)", "lat": 1.3932555, "lng": 103.8344928, "copeE": null, "copeF": null, "copeG": null}, {"id": "EWS289", "name": "Sembawang OD2 (Eastbank@Canberra Blk 121B)", "lat": 1.448102, "lng": 103.834511, "copeE": null, "copeF": null, "copeG": null}, {"id": "CWS023", "name": "Jln Mashhor OD (Behind RDA)", "lat": 1.3340997, "lng": 103.8349749, "copeE": null, "copeF": null, "copeG": null}, {"id": "CWS362", "name": "Alexandra Canal Sub Drain F (Tan Boon Liat Bldg)", "lat": 1.288019, "lng": 103.835009, "copeE": null, "copeF": null, "copeG": null}, {"id": "EWS299", "name": "Sembawang OD7 (Blk 604 Yishun Ave 2)", "lat": 1.421674, "lng": 103.835176, "copeE": null, "copeF": null, "copeG": null}, {"id": "EWS064", "name": "Yishun Ave 2 / Yishun Ave 5", "lat": 1.430976, "lng": 103.835187, "copeE": null, "copeF": null, "copeG": null}, {"id": "CWS295", "name": "Sg Kallang SD (Thomson V Two)", "lat": 1.353211, "lng": 103.835371, "copeE": null, "copeF": null, "copeG": null}, {"id": "CWS363", "name": "Alexandra Canal Sub Drain F (Outram Rd culvert outlet)", "lat": 1.2885211, "lng": 103.83555, "copeE": null, "copeF": null, "copeG": null}, {"id": "CWS296", "name": "Sg Kallang SD (Sin Ming Plaza)", "lat": 1.352831, "lng": 103.835763, "copeE": null, "copeF": null, "copeG": null}, {"id": "EWS298", "name": "Sembawang OD7 (Blk 602 Yishun St 61)", "lat": 1.422683, "lng": 103.835952, "copeE": null, "copeF": null, "copeG": null}, {"id": "CWS364", "name": "Alexandra Canal Sub Drain F (HaveLock Rd)", "lat": 1.2888674, "lng": 103.836044, "copeE": null, "copeF": null, "copeG": null}, {"id": "CWS365", "name": "Alexandra Canal Sub Drain F (Four Points Hotel)", "lat": 1.28929282, "lng": 103.836044, "copeE": null, "copeF": null, "copeG": null}, {"id": "EWS288", "name": "Sembawang OD2 (EastDelta@Canberra Blk 126B)", "lat": 1.445817, "lng": 103.836239, "copeE": null, "copeF": null, "copeG": null}, {"id": "CWS176", "name": "Bt Timah Canal (Esso)", "lat": 1.3160985, "lng": 103.8365356, "copeE": null, "copeF": null, "copeG": null}, {"id": "CWS119", "name": "Olive Rd/Joan Rd", "lat": 1.3378994, "lng": 103.8365742, "copeE": null, "copeF": null, "copeG": null}, {"id": "EWS297", "name": "Sembawang OD7 (Yishun St 61 u/s culvert)", "lat": 1.422785, "lng": 103.836575, "copeE": null, "copeF": null, "copeG": null}, {"id": "CWS118", "name": "Thomson Rd OD(Joan Rd)", "lat": 1.338376, "lng": 103.8365866, "copeE": null, "copeF": null, "copeG": null}, {"id": "EWS294", "name": "Sembawang OD6 (Blk 647 Yishun St 61)", "lat": 1.422547, "lng": 103.836859, "copeE": null, "copeF": null, "copeG": null}, {"id": "EWS300", "name": "Sembawang OD7 (Yishun St 61 d/s culvert)", "lat": 1.422704, "lng": 103.837341, "copeE": null, "copeF": null, "copeG": null}, {"id": "CWS021", "name": "Stamford Canal (313 @ Somerset)", "lat": 1.301311, "lng": 103.83773, "copeE": null, "copeF": null, "copeG": null}, {"id": "CWS366", "name": "Singapore River (Saiboo St)", "lat": 1.2896379, "lng": 103.837916, "copeE": null, "copeF": null, "copeG": null}, {"id": "CWS102", "name": "Exeter Road / Somerset Rd", "lat": 1.300153, "lng": 103.838, "copeE": null, "copeF": null, "copeG": null}, {"id": "CWS133", "name": "Marymount Lane/Upp Thomson Rd", "lat": 1.349113, "lng": 103.838302, "copeE": null, "copeF": null, "copeG": null}, {"id": "EWS290", "name": "Sembawang OD2 (Kandis Residence)", "lat": 1.455102, "lng": 103.838638, "copeE": null, "copeF": null, "copeG": null}, {"id": "EWS321", "name": "Yishun Ave 8 OD (ASM Technology)", "lat": 1.44355, "lng": 103.838664, "copeE": null, "copeF": null, "copeG": null}, {"id": "CWS449", "name": "Bt Timah Canal (Newton Circus U/s)", "lat": 1.3135, "lng": 103.83885, "copeE": null, "copeF": null, "copeG": null}, {"id": "EWS295", "name": "Sembawang OD6 (Blk 859 Yishun Ave 4)", "lat": 1.418107, "lng": 103.839157, "copeE": null, "copeF": null, "copeG": null}, {"id": "EWS301", "name": "Sembawang OD7 (Blk 651)", "lat": 1.423889, "lng": 103.839397, "copeE": null, "copeF": null, "copeG": null}, {"id": "CWS029", "name": "Sg Kallang Sub Drain (Marymount Rd)", "lat": 1.3474149, "lng": 103.839531, "copeE": null, "copeF": null, "copeG": null}, {"id": "EWS302", "name": "Sembawang OD7 (Khoo Teck Puat Hosp)", "lat": 1.424762, "lng": 103.839729, "copeE": null, "copeF": null, "copeG": null}, {"id": "CWS450", "name": "Bt Timah Canal (Newton Circus D/s)", "lat": 1.313027, "lng": 103.839735, "copeE": null, "copeF": null, "copeG": null}, {"id": "CWS014", "name": "Bt Timah Canal (Keng Lee Rd)", "lat": 1.313077909, "lng": 103.8399849, "copeE": null, "copeF": null, "copeG": null}, {"id": "EWS312", "name": "Sg Seletar Simpang Kiri (Seletar Bus Depot)", "lat": 1.395243, "lng": 103.840273, "copeE": null, "copeF": null, "copeG": null}, {"id": "CWS139", "name": "Ang Mo Kio Ave 3/ Mayflower Ave", "lat": 1.3698369, "lng": 103.8405432, "copeE": null, "copeF": null, "copeG": null}, {"id": "EWS322", "name": "Yishun Pond Outlet (Yishun Central)", "lat": 1.427689, "lng": 103.840557, "copeE": null, "copeF": null, "copeG": null}, {"id": "CWS010", "name": "Bishan St 21", "lat": 1.3474994, "lng": 103.8407024, "copeE": null, "copeF": null, "copeG": null}, {"id": "CWS027", "name": "Stamford Canal (Killiney Rd)", "lat": 1.3002602, "lng": 103.8408483, "copeE": null, "copeF": null, "copeG": null}, {"id": "EWS296", "name": "Sembawang OD7 (Blk 347)", "lat": 1.427796, "lng": 103.841254, "copeE": null, "copeF": null, "copeG": null}, {"id": "CWS158", "name": "Cavenagh Rd/ Kramat Lane", "lat": 1.3012617, "lng": 103.8414176, "copeE": null, "copeF": null, "copeG": null}, {"id": "CWS155", "name": "Eu Tong Sen OD (Kreta Ayer Rd)", "lat": 1.2819216, "lng": 103.841488, "copeE": null, "copeF": null, "copeG": null}, {"id": "CWS369", "name": "Eu Tong Sen OD (269 New Bridge Rd)", "lat": 1.2823824, "lng": 103.841869, "copeE": null, "copeF": null, "copeG": null}, {"id": "CWS149", "name": "The Arte / PIE", "lat": 1.3285973, "lng": 103.841887, "copeE": null, "copeF": null, "copeG": null}, {"id": "CWS299", "name": "Kallang River (Eunoia Junior College)", "lat": 1.362873, "lng": 103.841964, "copeE": null, "copeF": null, "copeG": null}, {"id": "CWS178", "name": "Kramat Lane", "lat": 1.3009426, "lng": 103.8421388, "copeE": null, "copeF": null, "copeG": null}, {"id": "CWS163", "name": "Balestier Rd / Thomson Rd", "lat": 1.3263868, "lng": 103.8424603, "copeE": null, "copeF": null, "copeG": null}, {"id": "CWS370", "name": "Eu Tong Sen OD (239 New Bridge Rd)", "lat": 1.2832918, "lng": 103.842628, "copeE": null, "copeF": null, "copeG": null}, {"id": "CWS177", "name": "Tanjong Pagar Road / Hoe Chiang Rd", "lat": 1.2739637, "lng": 103.8430966, "copeE": null, "copeF": null, "copeG": null}, {"id": "EWS029", "name": "Sg Seletar Simpang Kiri (Yio Chu Kang Rd)", "lat": 1.3891613, "lng": 103.8430997, "copeE": null, "copeF": null, "copeG": null}, {"id": "CWS164", "name": "Craig Road / Duxton Road", "lat": 1.2774275, "lng": 103.8432333, "copeE": null, "copeF": null, "copeG": null}, {"id": "CWS371", "name": "Singapore River (Clemenceau Ave)", "lat": 1.29117681, "lng": 103.843245, "copeE": null, "copeF": null, "copeG": null}, {"id": "CWS165", "name": "Tanjong Pagar Road (Tanjong Pagar Plaza)", "lat": 1.276056, "lng": 103.8432683, "copeE": null, "copeF": null, "copeG": null}, {"id": "CWS169", "name": "Tanjong Pagar Road (CarltonCity Hotel)", "lat": 1.2762541, "lng": 103.8434819, "copeE": null, "copeF": null, "copeG": null}, {"id": "CWS154", "name": "Tanjong Pagar Rd/Craig Rd", "lat": 1.2772959, "lng": 103.8435013, "copeE": null, "copeF": null, "copeG": null}, {"id": "CWS167", "name": "Tanjong Pagar OD (Bernam Street)", "lat": 1.2733976, "lng": 103.8435204, "copeE": null, "copeF": null, "copeG": null}, {"id": "CWS117", "name": "Bt Timah 2nd Diversion Canal (Jalan Datoh)", "lat": 1.3290247, "lng": 103.8436519, "copeE": null, "copeF": null, "copeG": null}, {"id": "CWS170", "name": "Tanjong Pagar Road (Orchid Hotel)", "lat": 1.2772553, "lng": 103.8436579, "copeE": null, "copeF": null, "copeG": null}, {"id": "EWS303", "name": "Sembawang OD7 (Yishun Nature Pk)", "lat": 1.431819, "lng": 103.843705, "copeE": null, "copeF": null, "copeG": null}, {"id": "EWS092", "name": "Sungei Khatib Bongsu (Yishun Ave 6)", "lat": 1.433556, "lng": 103.844282, "copeE": null, "copeF": null, "copeG": null}, {"id": "CWS451", "name": "Bt Timah Canal (CTE/Thomson Rd)", "lat": 1.31374, "lng": 103.84496, "copeE": null, "copeF": null, "copeG": null}, {"id": "EWS314", "name": "Sg Seletar Simpang Kiri (Yio Chu Kang Sports Centre)", "lat": 1.383459, "lng": 103.845309, "copeE": null, "copeF": null, "copeG": null}, {"id": "EWS305", "name": "Sg Khatib Bongsu (Symphony Suites)", "lat": 1.43488, "lng": 103.8456, "copeE": null, "copeF": null, "copeG": null}, {"id": "CWS234", "name": "Upper Pickering St / New Bridge Rd", "lat": 1.2861336, "lng": 103.8457544, "copeE": null, "copeF": null, "copeG": null}, {"id": "CWS373", "name": "Eu Tong Sen Cannal (Merchant Rd)", "lat": 1.2870862, "lng": 103.845791, "copeE": null, "copeF": null, "copeG": null}, {"id": "CWS136", "name": "Binchang Rise/Clover Close", "lat": 1.3499593, "lng": 103.8459807, "copeE": null, "copeF": null, "copeG": null}, {"id": "CWS019", "name": "Stamford Canal (Handy Rd)", "lat": 1.299421544, "lng": 103.8460457, "copeE": null, "copeF": null, "copeG": null}, {"id": "CWS233", "name": "Upper Hokien St (Fook Hai Building)", "lat": 1.2853174, "lng": 103.8463371, "copeE": null, "copeF": null, "copeG": null}, {"id": "EWS304", "name": "Sg Khatib Bongsu (Khatib Bongsu Nature Pk)", "lat": 1.436011, "lng": 103.846684, "copeE": null, "copeF": null, "copeG": null}, {"id": "EWS311", "name": "Sg Seletar Simpang Kiri (AMK Ave 5/AMK Ave 8)", "lat": 1.377257, "lng": 103.846747, "copeE": null, "copeF": null, "copeG": null}, {"id": "CWS147", "name": "Mackenzie Rd", "lat": 1.307446, "lng": 103.846766, "copeE": null, "copeF": null, "copeG": null}, {"id": "CWS084", "name": "Cambridge Road OD", "lat": 1.314174, "lng": 103.847, "copeE": null, "copeF": null, "copeG": null}, {"id": "CWS115", "name": "Bishan Rd / Bishan St 21", "lat": 1.348178, "lng": 103.8470757, "copeE": null, "copeF": null, "copeG": null}, {"id": "CWS374", "name": "Stamford Canal (Handy Rd culvert inlet)", "lat": 1.299087, "lng": 103.847328, "copeE": null, "copeF": null, "copeG": null}, {"id": "CWS043", "name": "S'pore River (Coleman Bridge)", "lat": 1.29012, "lng": 103.847601, "copeE": null, "copeF": null, "copeG": null}, {"id": "CWS404", "name": "Norfolk Rd (Blk 40)", "lat": 1.3162205, "lng": 103.847771, "copeE": null, "copeF": null, "copeG": null}, {"id": "CWS134", "name": "Rochor Canal(Kampong Java Rd)", "lat": 1.309974, "lng": 103.848017, "copeE": null, "copeF": null, "copeG": null}, {"id": "EWS283", "name": "Lower Seletar Reservoir 3rd inlet( Yishun Ave 1)", "lat": 1.42101095, "lng": 103.849531, "copeE": null, "copeF": null, "copeG": null}, {"id": "CWS425", "name": "Sg Whampoa (Jln Rajah)", "lat": 1.3287572, "lng": 103.84962, "copeE": null, "copeF": null, "copeG": null}, {"id": "EWS313", "name": "Sg Seletar Simpang Kiri (SIT @ NYP)", "lat": 1.376525, "lng": 103.849808, "copeE": null, "copeF": null, "copeG": null}, {"id": "CWS144", "name": "Sg Kallang (Bishan Rd)", "lat": 1.357384, "lng": 103.850114, "copeE": null, "copeF": null, "copeG": null}, {"id": "CWS416", "name": "Jln Kemaman OD (Balestier Plaze)", "lat": 1.325919, "lng": 103.850141, "copeE": null, "copeF": null, "copeG": null}, {"id": "CWS073", "name": "CTE/ Moulmein Rd", "lat": 1.3182441, "lng": 103.8501448, "copeE": null, "copeF": null, "copeG": null}, {"id": "CWS075", "name": "Mandalay Rd/ Martaban Rd", "lat": 1.324371, "lng": 103.850346, "copeE": null, "copeF": null, "copeG": null}, {"id": "CWS329", "name": "Bt Timah 2nd Diversion Canal (Jalan Rajah)", "lat": 1.3290193, "lng": 103.8503537, "copeE": null, "copeF": null, "copeG": null}, {"id": "CWS456", "name": "Kallang River (Bishan Stadium)", "lat": 1.356913, "lng": 103.850498, "copeE": null, "copeF": null, "copeG": null}, {"id": "CWS399", "name": "Boon Tat St OD (Hong Leong Bldg)", "lat": 1.281154, "lng": 103.8505733, "copeE": null, "copeF": null, "copeG": null}, {"id": "CWS384", "name": "Stamford Canal (Stamford Rd/North Bridge Rd)", "lat": 1.294298, "lng": 103.851119, "copeE": null, "copeF": null, "copeG": null}, {"id": "CWS426", "name": "Sg Whampoa (Jln Kemaman)", "lat": 1.3277047, "lng": 103.851502, "copeE": null, "copeF": null, "copeG": null}, {"id": "EWS012", "name": "Sg Puak Besar (Cactus Rd)", "lat": 1.389324, "lng": 103.851581, "copeE": null, "copeF": null, "copeG": null}, {"id": "CWS415", "name": "Jln Ampas OD (The Viridian)", "lat": 1.3264707, "lng": 103.851697, "copeE": null, "copeF": null, "copeG": null}, {"id": "EWS071", "name": "Cactus Dr / Cactus Rd", "lat": 1.3894586, "lng": 103.8518832, "copeE": null, "copeF": null, "copeG": null}, {"id": "EWS070", "name": "Cactus Dr/Grande Vista", "lat": 1.3892106, "lng": 103.8519684, "copeE": null, "copeF": null, "copeG": null}, {"id": "CWS403", "name": "Dorset Rd OD (Owen Rd)", "lat": 1.3147011, "lng": 103.852099, "copeE": null, "copeF": null, "copeG": null}, {"id": "CWS427", "name": "Sg Whampoa (Jln Ampas)", "lat": 1.3271496, "lng": 103.852487, "copeE": null, "copeF": null, "copeG": null}, {"id": "CWS104", "name": "Balestier Point", "lat": 1.3227986, "lng": 103.8525487, "copeE": null, "copeF": null, "copeG": null}, {"id": "CWS303", "name": "Ang Mo Kio OD 8A (Townsville Pri Sch)", "lat": 1.3601726, "lng": 103.853091, "copeE": null, "copeF": null, "copeG": null}, {"id": "CWS304", "name": "Kallang River (Bishan Estate)", "lat": 1.35321867, "lng": 103.853511, "copeE": null, "copeF": null, "copeG": null}, {"id": "CWS069", "name": "Bencoolen St/ Rochor Canal Rd", "lat": 1.3027091, "lng": 103.8539257, "copeE": null, "copeF": null, "copeG": null}, {"id": "CWS428", "name": "Sg Whampoa (Kim Keat Rd)", "lat": 1.326378, "lng": 103.853974, "copeE": null, "copeF": null, "copeG": null}, {"id": "CWS386", "name": "Stamford Canal (War Memorial Pk)", "lat": 1.292356, "lng": 103.854338, "copeE": null, "copeF": null, "copeG": null}, {"id": "CWS305", "name": "Ang Mo Kio OD 8 (Ang Mo Kio Ave 1)", "lat": 1.35634681, "lng": 103.8545, "copeE": null, "copeF": null, "copeG": null}, {"id": "CWS429", "name": "Sg Whampoa (Masjid Hj Rahimabi)", "lat": 1.3260321, "lng": 103.854749, "copeE": null, "copeF": null, "copeG": null}, {"id": "CWS306", "name": "Ang Mo Kio OD 8B (Ang Mo Kio Ave 1)", "lat": 1.35703, "lng": 103.854892, "copeE": null, "copeF": null, "copeG": null}, {"id": "CWS414", "name": "Kim Keat Rd/Whampoa Rd", "lat": 1.327025, "lng": 103.855269, "copeE": null, "copeF": null, "copeG": null}, {"id": "CWS387", "name": "Stamford Canal (One Raffles Link)", "lat": 1.291545, "lng": 103.855304, "copeE": null, "copeF": null, "copeG": null}, {"id": "CWS100", "name": "Veerasamy Rd", "lat": 1.3065772, "lng": 103.855704, "copeE": null, "copeF": null, "copeG": null}, {"id": "CWS331", "name": "Rochor Canal (Sungei Rd)", "lat": 1.303897, "lng": 103.855819, "copeE": null, "copeF": null, "copeG": null}, {"id": "CWS417", "name": "Kim Keat Rd/Jln Bahagia", "lat": 1.327943, "lng": 103.856005, "copeE": null, "copeF": null, "copeG": null}, {"id": "CWS409", "name": "Tessensohn Rd OD (Balestier Rd)", "lat": 1.3175961, "lng": 103.856225, "copeE": null, "copeF": null, "copeG": null}, {"id": "CWS080", "name": "Kallang Subsidary Drain (Lor 8 Toa Payoh)", "lat": 1.3420932, "lng": 103.856553, "copeE": null, "copeF": null, "copeG": null}, {"id": "CWS150", "name": "Sg Whampoa (Whampoa CC)", "lat": 1.3244983, "lng": 103.8567337, "copeE": null, "copeF": null, "copeG": null}, {"id": "CWS183", "name": "Lorong Chuan OD (outlet to Kallang River)", "lat": 1.3484054, "lng": 103.8571434, "copeE": null, "copeF": null, "copeG": null}, {"id": "CWS307", "name": "Kallang River (BCA Braddell Campus)", "lat": 1.34444839, "lng": 103.857589, "copeE": null, "copeF": null, "copeG": null}, {"id": "CWS410", "name": "Tessensohn Rd OD (Towner Rd)", "lat": 1.3210382, "lng": 103.85761, "copeE": null, "copeF": null, "copeG": null}, {"id": "CWS025", "name": "Kallang River (Braddell Rd)", "lat": 1.3429821, "lng": 103.8577046, "copeE": null, "copeF": null, "copeG": null}, {"id": "CWS030", "name": "Mei Hwan Rd / CTE", "lat": 1.3546472, "lng": 103.8583313, "copeE": null, "copeF": null, "copeG": null}, {"id": "CWS182", "name": "Lorong Chuan OD (AIS)", "lat": 1.3492216, "lng": 103.8586229, "copeE": null, "copeF": null, "copeG": null}, {"id": "CWS413", "name": "Sg Whampoa (Mcnair Spring)", "lat": 1.3231214, "lng": 103.858751, "copeE": null, "copeF": null, "copeG": null}, {"id": "CWS411", "name": "Towner Rd OD (Towner Heights)", "lat": 1.320275, "lng": 103.858765, "copeE": null, "copeF": null, "copeG": null}, {"id": "CWS071", "name": "Jln Sultan/ Rochor Canal Rd", "lat": 1.30613106, "lng": 103.8591253, "copeE": null, "copeF": null, "copeG": null}, {"id": "CWS011", "name": "Bt Timah 2nd Diversion Canal (Jln Tenteram)  ", "lat": 1.3293015, "lng": 103.8592798, "copeE": null, "copeF": null, "copeG": null}, {"id": "EWS087", "name": "Lilac Drive/CTE", "lat": 1.380716, "lng": 103.859814, "copeE": null, "copeF": null, "copeG": null}, {"id": "EWS002", "name": "Mimosa Walk / CTE", "lat": 1.381286, "lng": 103.859877, "copeE": null, "copeF": null, "copeG": null}, {"id": "CWS412", "name": "Sg Whampoa (McNair Towers)", "lat": 1.3219824, "lng": 103.85992, "copeE": null, "copeF": null, "copeG": null}, {"id": "CWS181", "name": "Lorong Chuan OD (Blk 31)", "lat": 1.3496197, "lng": 103.8599801, "copeE": null, "copeF": null, "copeG": null}, {"id": "CWS072", "name": "King George's Ave at PA HQ", "lat": 1.30884, "lng": 103.860445, "copeE": null, "copeF": null, "copeG": null}, {"id": "CWS309", "name": "Lorong Chuan OD (Chuan Close)", "lat": 1.3496875, "lng": 103.860737, "copeE": null, "copeF": null, "copeG": null}, {"id": "CWS455", "name": "Kallang River (Braddell Bus Depot)", "lat": 1.33963, "lng": 103.86097, "copeE": null, "copeF": null, "copeG": null}, {"id": "CWS047", "name": "Rochor Canal(Victoria Street)", "lat": 1.3065369, "lng": 103.8615264, "copeE": null, "copeF": null, "copeG": null}, {"id": "CWS430", "name": "Sg Whampoa (St Georges Lane)", "lat": 1.3216405, "lng": 103.861622, "copeE": null, "copeF": null, "copeG": null}, {"id": "CWS091", "name": "Marina Boulevard / Marina Gardens Drive", "lat": 1.275557, "lng": 103.861692, "copeE": null, "copeF": null, "copeG": null}, {"id": "CWS015", "name": "Carmichael Rd OD (CTE )", "lat": 1.342463, "lng": 103.862048, "copeE": null, "copeF": null, "copeG": null}, {"id": "CWS408", "name": "St George Lane/St Georges Rd", "lat": 1.3230879, "lng": 103.86228, "copeE": null, "copeF": null, "copeG": null}, {"id": "CWS106", "name": "Boon Keng Rd / Bendemeer Rd", "lat": 1.316782, "lng": 103.862853, "copeE": null, "copeF": null, "copeG": null}, {"id": "CWS310", "name": "Lorong Chuan OD (Spring Bloom Condo)", "lat": 1.35137303, "lng": 103.862895, "copeE": null, "copeF": null, "copeG": null}, {"id": "CWS125", "name": "Carmichael OD(Carmichael Rd)", "lat": 1.343395, "lng": 103.86337, "copeE": null, "copeF": null, "copeG": null}, {"id": "CWS452", "name": "Rochor Canal (ICA Building)", "lat": 1.3062862, "lng": 103.8635368, "copeE": null, "copeF": null, "copeG": null}, {"id": "CWS312", "name": "Kallang River (Potong Pasir Ave 1)", "lat": 1.3372873, "lng": 103.863655, "copeE": null, "copeF": null, "copeG": null}, {"id": "CWS311", "name": "Kallang River (Serangoon Rd)", "lat": 1.32928714, "lng": 103.86367, "copeE": null, "copeF": null, "copeG": null}, {"id": "CWS126", "name": "Kallang River (Potong Pasir Ave 3)", "lat": 1.3309557, "lng": 103.8642975, "copeE": null, "copeF": null, "copeG": null}, {"id": "CWS052", "name": "Kallang River (Jln Taman)", "lat": 1.3262725, "lng": 103.8654337, "copeE": null, "copeF": null, "copeG": null}, {"id": "CWS330", "name": "Rochor Canal (Crawford St)", "lat": 1.3056219, "lng": 103.8662696, "copeE": null, "copeF": null, "copeG": null}, {"id": "CWS123", "name": "Kallang river tributary(Kallang Ave)", "lat": 1.312375, "lng": 103.866578, "copeE": null, "copeF": null, "copeG": null}, {"id": "CWS035", "name": "Lor Chuan OD (Serangoon Ave 2)", "lat": 1.35289, "lng": 103.866666, "copeE": null, "copeF": null, "copeG": null}, {"id": "CWS180", "name": "Lorong Chuan OD (Blk 318)", "lat": 1.3525881, "lng": 103.8669626, "copeE": null, "copeF": null, "copeG": null}, {"id": "EWS054", "name": "Neram OD (Upper Neram Rd)", "lat": 1.3869, "lng": 103.867243, "copeE": null, "copeF": null, "copeG": null}, {"id": "CWS454", "name": "Kallang River (Bendemeer Rd)", "lat": 1.32302, "lng": 103.86736, "copeE": null, "copeF": null, "copeG": null}, {"id": "CWS313", "name": "Serangoon Garden OD 2 (Colchester Gr Park)", "lat": 1.3574379, "lng": 103.867452, "copeE": null, "copeF": null, "copeG": null}, {"id": "CWS314", "name": "Serangoon Garden OD 2 (Unit 2 Colchester Gr)", "lat": 1.3590347, "lng": 103.867931, "copeE": null, "copeF": null, "copeG": null}, {"id": "EWS008", "name": "Seletar Rd / Neram Rd", "lat": 1.387371, "lng": 103.868557, "copeE": null, "copeF": null, "copeG": null}, {"id": "EWS083", "name": "Ang Mo Kio Ave 5/ Luxus Hill Rd", "lat": 1.378733, "lng": 103.868619, "copeE": null, "copeF": null, "copeG": null}, {"id": "CWS028", "name": "Macpherson OD (Geylang Bahru)", "lat": 1.323802, "lng": 103.868673, "copeE": null, "copeF": null, "copeG": null}, {"id": "CWS230", "name": "Serangoon Ave 2/ Serangoon Ave 3", "lat": 1.35181745, "lng": 103.8693846, "copeE": null, "copeF": null, "copeG": null}, {"id": "CWS220", "name": "Puay Hee Ave/ Siak Kew Ave", "lat": 1.3298489, "lng": 103.8701591, "copeE": null, "copeF": null, "copeG": null}, {"id": "CWS022", "name": "Kallang River (Sims Ave)", "lat": 1.3112886, "lng": 103.8704414, "copeE": null, "copeF": null, "copeG": null}, {"id": "CWS077", "name": "Machperson OD (Macpherson Rd)", "lat": 1.327266, "lng": 103.871, "copeE": null, "copeF": null, "copeG": null}, {"id": "CWS107", "name": "Lor 1 Geylang / Geylang Rd", "lat": 1.3104804, "lng": 103.8722848, "copeE": null, "copeF": null, "copeG": null}, {"id": "CWS432", "name": "Siang Kuang Ave (Unit 43A)", "lat": 1.3299665, "lng": 103.87274, "copeE": null, "copeF": null, "copeG": null}, {"id": "CWS056", "name": "Puay Hee Ave", "lat": 1.332091, "lng": 103.872839, "copeE": null, "copeF": null, "copeG": null}, {"id": "CWS127", "name": "Siang Kuang Ave / Macpherson Rd", "lat": 1.3297292, "lng": 103.8731273, "copeE": null, "copeF": null, "copeG": null}, {"id": "EWS052", "name": "Jalan Kayu / Sengkang West Way", "lat": 1.394762, "lng": 103.873354, "copeE": null, "copeF": null, "copeG": null}, {"id": "EWS091", "name": "Seletar North Link (Lamp Post 115)", "lat": 1.431004, "lng": 103.874763, "copeE": null, "copeF": null, "copeG": null}, {"id": "CWS435", "name": "Lor Gambir (Le Gambir)", "lat": 1.345356, "lng": 103.875571, "copeE": null, "copeF": null, "copeG": null}, {"id": "CWS418", "name": "Jln Rindu OD (Lor Gambir)", "lat": 1.345005, "lng": 103.875982, "copeE": null, "copeF": null, "copeG": null}, {"id": "EWS081", "name": "Sg Tongkang (Yio Chu Kang Rd)", "lat": 1.37979, "lng": 103.87621, "copeE": null, "copeF": null, "copeG": null}, {"id": "EWS017", "name": "Sg Tongkang (Lor Buangkok)", "lat": 1.382712, "lng": 103.877028, "copeE": null, "copeF": null, "copeG": null}, {"id": "EWS274", "name": "Gerald Dr/Eaton Walk", "lat": 1.38842684, "lng": 103.87754, "copeE": null, "copeF": null, "copeG": null}, {"id": "CWS110", "name": "Lor Ong Lye / Lor Lew Lian", "lat": 1.3481966, "lng": 103.8778859, "copeE": null, "copeF": null, "copeG": null}, {"id": "CWS157", "name": "Upp Aljunied Rd / Cedar Ave", "lat": 1.33542, "lng": 103.87796, "copeE": null, "copeF": null, "copeG": null}, {"id": "CWS026", "name": "Pelton Canal (Kallang Way)", "lat": 1.3217092, "lng": 103.8787808, "copeE": null, "copeF": null, "copeG": null}, {"id": "EWS090", "name": "Seletar North Link", "lat": 1.4289586, "lng": 103.8791308, "copeE": null, "copeF": null, "copeG": null}, {"id": "CWS020", "name": "Happy Ave OD (Jln Setia)", "lat": 1.337119, "lng": 103.880717, "copeE": null, "copeF": null, "copeG": null}, {"id": "CWS419", "name": "Sims Dr OD (PIE)", "lat": 1.320841, "lng": 103.880812, "copeE": null, "copeF": null, "copeG": null}, {"id": "CWS122", "name": "Lorong 23 Geylang/Sims Lane", "lat": 1.3165373, "lng": 103.8810181, "copeE": null, "copeF": null, "copeG": null}, {"id": "CWS222", "name": "Happy Ave North (Lamp post 11)", "lat": 1.3311075, "lng": 103.8810502, "copeE": null, "copeF": null, "copeG": null}, {"id": "CWS162", "name": "Mount Vernon Rd", "lat": 1.3415043, "lng": 103.881131, "copeE": null, "copeF": null, "copeG": null}, {"id": "CWS121", "name": "Stadium Crescent/Jalan Benaan Kapal", "lat": 1.303456, "lng": 103.881202, "copeE": null, "copeF": null, "copeG": null}, {"id": "CWS328", "name": "Aljunied Rd (Sims Urban Oasis)", "lat": 1.3203578, "lng": 103.8814945, "copeE": null, "copeF": null, "copeG": null}, {"id": "CWS161", "name": "Playfair Rd OD (Bartley Rd East)", "lat": 1.341519, "lng": 103.8818267, "copeE": null, "copeF": null, "copeG": null}, {"id": "CWS227", "name": "Jln Lokam/ Upp Paya Lebar Rd", "lat": 1.3455473, "lng": 103.8818562, "copeE": null, "copeF": null, "copeG": null}, {"id": "CWS327", "name": "Aljunied Rd (Hong Leong NKF)", "lat": 1.3203608, "lng": 103.8819065, "copeE": null, "copeF": null, "copeG": null}, {"id": "EWS013", "name": "Sg Punggol (Mugliston Pk)", "lat": 1.391422, "lng": 103.881919, "copeE": null, "copeF": null, "copeG": null}, {"id": "CWS152", "name": "Happy Avenue OD (Jln Anggerek)", "lat": 1.3310975, "lng": 103.882217, "copeE": null, "copeF": null, "copeG": null}, {"id": "CWS270", "name": "Happy Ave OD (Jln Anggerek)", "lat": 1.331113, "lng": 103.882662, "copeE": null, "copeF": null, "copeG": null}, {"id": "EWS082", "name": "Poh Huat Road OD (Jln Arif)", "lat": 1.36773, "lng": 103.883193, "copeE": null, "copeF": null, "copeG": null}, {"id": "EWS046", "name": "Lowland Rd/ Kovan Rd", "lat": 1.360891, "lng": 103.883513, "copeE": null, "copeF": null, "copeG": null}, {"id": "CWS046", "name": "Upper Paya Lebar Rd", "lat": 1.3426017, "lng": 103.8835836, "copeE": null, "copeF": null, "copeG": null}, {"id": "CWS420", "name": "Guillemard Rd OD (Shell)", "lat": 1.310655, "lng": 103.883648, "copeE": null, "copeF": null, "copeG": null}, {"id": "CWS269", "name": "Jln Bunga Rampai OD (Bartley Secondary School)", "lat": 1.340134, "lng": 103.883773, "copeE": null, "copeF": null, "copeG": null}, {"id": "CWS271", "name": "Happy Ave OD (Jln Chengkek)", "lat": 1.330836, "lng": 103.884407, "copeE": null, "copeF": null, "copeG": null}, {"id": "CWS096", "name": "Upper Paya Lebar Rd / Lim Teck Boo Rd", "lat": 1.3418995, "lng": 103.8844271, "copeE": null, "copeF": null, "copeG": null}, {"id": "CWS272", "name": "Pelton Canal (Merpati Rd)", "lat": 1.32703, "lng": 103.884632, "copeE": null, "copeF": null, "copeG": null}, {"id": "CWS273", "name": "Playfair OD (Little Rd)", "lat": 1.33838, "lng": 103.885034, "copeE": null, "copeF": null, "copeG": null}, {"id": "CWS031", "name": "Geylang River (Dakota Cres)", "lat": 1.305609, "lng": 103.88508, "copeE": null, "copeF": null, "copeG": null}, {"id": "CWS112", "name": "Fort Rd / ECP", "lat": 1.2968416, "lng": 103.8851151, "copeE": null, "copeF": null, "copeG": null}, {"id": "CWS275", "name": "Playfair OD (Shaw Rd)", "lat": 1.33745, "lng": 103.885559, "copeE": null, "copeF": null, "copeG": null}, {"id": "CWS219", "name": "Fort Rd/ Meyer Rd", "lat": 1.299331, "lng": 103.886121, "copeE": null, "copeF": null, "copeG": null}, {"id": "CWS276", "name": "Playfair OD (Sulisam Building)", "lat": 1.33492, "lng": 103.886339, "copeE": null, "copeF": null, "copeG": null}, {"id": "CWS061", "name": "Wimborn Rd PS", "lat": 1.3052264, "lng": 103.8865518, "copeE": null, "copeF": null, "copeG": null}, {"id": "CWS101", "name": "Macpherson Rd/ Playfair Rd", "lat": 1.333218, "lng": 103.88697, "copeE": null, "copeF": null, "copeG": null}, {"id": "CWS277", "name": "Playfair OD (Macpherson Rd)", "lat": 1.332936, "lng": 103.887122, "copeE": null, "copeF": null, "copeG": null}, {"id": "CWS057", "name": "Ford Road OD (The Belvedere/Katong Pk)", "lat": 1.2967953, "lng": 103.8872042, "copeE": null, "copeF": null, "copeG": null}, {"id": "CWS282", "name": "Marina East OD (ECP Service Rd)", "lat": 1.294404, "lng": 103.888204, "copeE": null, "copeF": null, "copeG": null}, {"id": "CWS280", "name": "Pelton Canal (Paya Lebar Rd)", "lat": 1.332426, "lng": 103.888473, "copeE": null, "copeF": null, "copeG": null}, {"id": "EWS275", "name": "Hougang Ave 10 (Hougang Polyclinic)", "lat": 1.36968, "lng": 103.888585, "copeE": null, "copeF": null, "copeG": null}, {"id": "CWS128", "name": "Upper Paya Lebar Diversion Outlet Drain (Airport Rd)", "lat": 1.334689, "lng": 103.8889265, "copeE": null, "copeF": null, "copeG": null}, {"id": "CWS457", "name": "Geylang River (Kong Hwa Sch) - Radar", "lat": 1.31116, "lng": 103.88904, "copeE": null, "copeF": null, "copeG": null}, {"id": "CWS036", "name": "Sims Ave / Lor 35 Geylang", "lat": 1.316008521, "lng": 103.8892367, "copeE": null, "copeF": null, "copeG": null}, {"id": "CWS458", "name": "Geylang River (The Sunny Spring) - Radar", "lat": 1.31333, "lng": 103.88927, "copeE": null, "copeF": null, "copeG": null}, {"id": "EWS357", "name": "Buangkok Dr OD (Blk 562)", "lat": 1.38120524, "lng": 103.889358, "copeE": null, "copeF": null, "copeG": null}, {"id": "CWS281", "name": "Geylang River (Dunman Rd)", "lat": 1.308392, "lng": 103.88942, "copeE": null, "copeF": null, "copeG": null}, {"id": "EWS235", "name": "Jln Pelikat OD(Blk 109 Hougang Ave 1)", "lat": 1.3555253, "lng": 103.8895773, "copeE": null, "copeF": null, "copeG": null}, {"id": "EWS085", "name": "Tampines Road OD(Tampines Rd)", "lat": 1.361263, "lng": 103.890323, "copeE": null, "copeF": null, "copeG": null}, {"id": "CWS223", "name": "Paya Lebar Road (ACE Building)", "lat": 1.3278746, "lng": 103.8904698, "copeE": null, "copeF": null, "copeG": null}, {"id": "EWS075", "name": "Hougang New Town OD(Hougang Ave 8)", "lat": 1.376488, "lng": 103.890644, "copeE": null, "copeF": null, "copeG": null}, {"id": "CWS005", "name": "Pelton Canal (Airport Rd)", "lat": 1.3334273, "lng": 103.8907515, "copeE": null, "copeF": null, "copeG": null}, {"id": "CWS459", "name": "Geylang River (Grandlink Square) - Radar", "lat": 1.31369, "lng": 103.89112, "copeE": null, "copeF": null, "copeG": null}, {"id": "CWS224", "name": "Jln Afifi/ Paya Lebar Rd", "lat": 1.3214226, "lng": 103.8915152, "copeE": null, "copeF": null, "copeG": null}, {"id": "CWS283", "name": "Hougang Ave 3 OD (Kim Chuan Dr)", "lat": 1.341635, "lng": 103.891539, "copeE": null, "copeF": null, "copeG": null}, {"id": "EWS236", "name": "Jln Pelikat OD (Blk 101 Haugang Ave 1)", "lat": 1.355372, "lng": 103.891582, "copeE": null, "copeF": null, "copeG": null}, {"id": "CWS284", "name": "Airport Rd OD (HQ Singapore Civil Defence Force)", "lat": 1.333908, "lng": 103.891698, "copeE": null, "copeF": null, "copeG": null}, {"id": "CWS135", "name": "Paya Lebar OD (Arumugam Rd)", "lat": 1.3256447, "lng": 103.8917348, "copeE": null, "copeF": null, "copeG": null}, {"id": "EWS094", "name": "Tampines Rd/ Jln Teliti", "lat": 1.361185, "lng": 103.8918149, "copeE": null, "copeF": null, "copeG": null}, {"id": "EWS238", "name": "Hougang Ave 10 OD (Blk 522)", "lat": 1.37314578, "lng": 103.891846, "copeE": null, "copeF": null, "copeG": null}, {"id": "CWS060", "name": "Poole Rd PS (Wareham Rd)", "lat": 1.307755, "lng": 103.891864, "copeE": null, "copeF": null, "copeG": null}, {"id": "CWS153", "name": "Geylang East Central OD (Paya Lebar Rd)", "lat": 1.3182213, "lng": 103.8920617, "copeE": null, "copeF": null, "copeG": null}, {"id": "EWS237", "name": "Hougang Ave 8 OD (Blk 544)", "lat": 1.37834561, "lng": 103.892278, "copeE": null, "copeF": null, "copeG": null}, {"id": "CWS143", "name": "Geylang River (CISCO Centre)", "lat": 1.321765, "lng": 103.892469, "copeE": null, "copeF": null, "copeG": null}, {"id": "CWS285", "name": "Geylang River (Guillemard Rd)", "lat": 1.313908, "lng": 103.892515, "copeE": null, "copeF": null, "copeG": null}, {"id": "CWS225", "name": "Rose lane (Lamp post 11F)", "lat": 1.310362, "lng": 103.892597, "copeE": null, "copeF": null, "copeG": null}, {"id": "EWS142", "name": "Hougang Ave 3 / Tampines Road", "lat": 1.3609724, "lng": 103.8929938, "copeE": null, "copeF": null, "copeG": null}, {"id": "EWS095", "name": "Hougang Ave 3 (Blk 2)", "lat": 1.3630012, "lng": 103.8930196, "copeE": null, "copeF": null, "copeG": null}, {"id": "EWS239", "name": "Jln Pelikat OD (Defu Lane 10/Hougang Ave 3)", "lat": 1.35778885, "lng": 103.893068, "copeE": null, "copeF": null, "copeG": null}, {"id": "CWS286", "name": "Airport Rd OD (Ubi Rd 2)", "lat": 1.335577, "lng": 103.893391, "copeE": null, "copeF": null, "copeG": null}, {"id": "EWS240", "name": "Buangkok Dr OD (Blk 444)", "lat": 1.37973938, "lng": 103.893669, "copeE": null, "copeF": null, "copeG": null}, {"id": "EWS086", "name": "Tampines Rd / Hougang Ave 3", "lat": 1.3618378, "lng": 103.8936989, "copeE": null, "copeF": null, "copeG": null}, {"id": "EWS255", "name": "Pulau Punggol Timor OD2 (Seletar North Link)", "lat": 1.4195165, "lng": 103.8937646, "copeE": null, "copeF": null, "copeG": null}, {"id": "EWS096", "name": "Hougang (Blk 314)", "lat": 1.36443, "lng": 103.893958, "copeE": null, "copeF": null, "copeG": null}, {"id": "CWS040", "name": "Airport Rd OD (Tai Seng Dr)", "lat": 1.336624, "lng": 103.894891, "copeE": null, "copeF": null, "copeG": null}, {"id": "EWS259", "name": "Sumang Walk (Blk 259)", "lat": 1.404736, "lng": 103.895083, "copeE": null, "copeF": null, "copeG": null}, {"id": "EWS242", "name": "Jln Pelikat OD (Defu Ave 1/Tampines Rd)", "lat": 1.36127, "lng": 103.89513, "copeE": null, "copeF": null, "copeG": null}, {"id": "EWS243", "name": "Hougang Ave 10 OD (Blk 418)", "lat": 1.376303, "lng": 103.895572, "copeE": null, "copeF": null, "copeG": null}, {"id": "EWS241", "name": "Sg Punggol (Seletar Link)", "lat": 1.4099737, "lng": 103.8958741, "copeE": null, "copeF": null, "copeG": null}, {"id": "EWS015", "name": "Sg Serangoon Branch (Hougang Ave 7)", "lat": 1.362659, "lng": 103.8960327, "copeE": null, "copeF": null, "copeG": null}, {"id": "CWS401", "name": "Haig Rd/Butterworth Lane", "lat": 1.312654, "lng": 103.896114, "copeE": null, "copeF": null, "copeG": null}, {"id": "EWS244", "name": "Hougang Ave 10 OD (Blk 452)", "lat": 1.37769915, "lng": 103.896461, "copeE": null, "copeF": null, "copeG": null}, {"id": "CWS287", "name": "Kaki Bukit OD 1 (Ubi Ave 2)", "lat": 1.328412, "lng": 103.896615, "copeE": null, "copeF": null, "copeG": null}, {"id": "CWS333", "name": "Mountbatten Rd / Tanjong Katong Rd", "lat": 1.301956, "lng": 103.896686, "copeE": null, "copeF": null, "copeG": null}, {"id": "CWS288", "name": "Jln Eunos Estate OD 1 (Eunos Ave 8A)", "lat": 1.323851, "lng": 103.896706, "copeE": null, "copeF": null, "copeG": null}, {"id": "CWS156", "name": "Jln Seaview", "lat": 1.301663, "lng": 103.8968116, "copeE": null, "copeF": null, "copeG": null}, {"id": "CWS289", "name": "Kaki Bukit OD 1 (Paya Ubi Industrial Park)", "lat": 1.324376, "lng": 103.896943, "copeE": null, "copeF": null, "copeG": null}, {"id": "CWS332", "name": "Tanjong Katong Rd S/Amber Garden", "lat": 1.3008444, "lng": 103.897285, "copeE": null, "copeF": null, "copeG": null}, {"id": "CWS044", "name": "Ubi Ave 1 / Ubi Cres", "lat": 1.326138, "lng": 103.897395, "copeE": null, "copeF": null, "copeG": null}, {"id": "CWS445", "name": "Mountbatten Rd (One Amber)", "lat": 1.301304, "lng": 103.8974124, "copeE": null, "copeF": null, "copeG": null}, {"id": "CWS114", "name": "Tanjong Katong Rd South / ECP", "lat": 1.2980442, "lng": 103.8978342, "copeE": null, "copeF": null, "copeG": null}, {"id": "CWS290", "name": "Airport Rd OD (Bartley Rd East)", "lat": 1.341056, "lng": 103.89802, "copeE": null, "copeF": null, "copeG": null}, {"id": "CWS447", "name": "Tg Katong Rd South OD (ECP Service Rd)", "lat": 1.29564, "lng": 103.89842, "copeE": null, "copeF": null, "copeG": null}, {"id": "CWS446", "name": "Tg Katong Rd South OD (Coastline Residences)", "lat": 1.29876, "lng": 103.89922, "copeE": null, "copeF": null, "copeG": null}, {"id": "CWS058", "name": "Langsat Rd / Lor 101 Changi", "lat": 1.315948, "lng": 103.8999387, "copeE": null, "copeF": null, "copeG": null}, {"id": "CWS462", "name": "Joo Chiat SD (Ceylon Residence)", "lat": 1.3093116, "lng": 103.8999903, "copeE": null, "copeF": null, "copeG": null}, {"id": "CWS441", "name": "Carpmael Rd (Unit 138)", "lat": 1.310333, "lng": 103.900101, "copeE": null, "copeF": null, "copeG": null}, {"id": "CWS460", "name": "Joo Chiat SD (Dunman Rd)", "lat": 1.30970837, "lng": 103.900353, "copeE": null, "copeF": null, "copeG": null}, {"id": "CWS463", "name": "Joo Chiat SD (Onan Rd Green Space)", "lat": 1.31005, "lng": 103.90067, "copeE": null, "copeF": null, "copeG": null}, {"id": "EWS262", "name": "Sg Serangoon Eastern SD (Serangoon River Rd)", "lat": 1.365393, "lng": 103.900965, "copeE": null, "copeF": null, "copeG": null}, {"id": "CWS461", "name": "Joo Chiat SD (Onan Rd)", "lat": 1.310389, "lng": 103.900973, "copeE": null, "copeF": null, "copeG": null}, {"id": "CWS082", "name": "Ubi Ave 2/ Eunos Link", "lat": 1.331071, "lng": 103.901187, "copeE": null, "copeF": null, "copeG": null}, {"id": "CWS292", "name": "Kaki Bukit OD 1 (Kaki Bukit Ave 2)", "lat": 1.337706, "lng": 103.901494, "copeE": null, "copeF": null, "copeG": null}, {"id": "EWS202", "name": "Sg Serangoon Branch (Tampines Rd)", "lat": 1.3631299, "lng": 103.9015849, "copeE": null, "copeF": null, "copeG": null}, {"id": "CWS464", "name": "Joo Chiat SD (241 Joo Chiat Rd) (Back up)", "lat": 1.310937, "lng": 103.901599, "copeE": null, "copeF": null, "copeG": null}, {"id": "EWS245", "name": "Defu Ind Estate OD1 (Defu Lane 3)", "lat": 1.35868635, "lng": 103.902103, "copeE": null, "copeF": null, "copeG": null}, {"id": "CWS293", "name": "Haig Rd OD (Mountbatten Rd)", "lat": 1.303807, "lng": 103.90223, "copeE": null, "copeF": null, "copeG": null}, {"id": "EWS214", "name": "Defu Industrial Estate OD 2 (Defu Lane 2)", "lat": 1.3610243, "lng": 103.902741, "copeE": null, "copeF": null, "copeG": null}, {"id": "CWS228", "name": "Langsat Rd/ Lor 105 Changi", "lat": 1.3153997, "lng": 103.90281, "copeE": null, "copeF": null, "copeG": null}, {"id": "CWS466", "name": "Joo Chiat SD (Torie Mansions) (back up)", "lat": 1.311783, "lng": 103.903398, "copeE": null, "copeF": null, "copeG": null}, {"id": "CWS148", "name": "Marine Parade Rd / Ambervilla", "lat": 1.3007047, "lng": 103.9034289, "copeE": null, "copeF": null, "copeG": null}, {"id": "EWS281", "name": "Telok Kurau OD (Lor 107 Changi)", "lat": 1.3167977, "lng": 103.904, "copeE": null, "copeF": null, "copeG": null}, {"id": "CWS294", "name": "Kaki Bukit OD 3 (Kaki Bukit Place)", "lat": 1.336359, "lng": 103.904146, "copeE": null, "copeF": null, "copeG": null}, {"id": "CWS443", "name": "Tembeling Rd (Unit 229)", "lat": 1.308198, "lng": 103.904413, "copeE": null, "copeF": null, "copeG": null}, {"id": "CWS045", "name": "Ubi Ave 1 / PIE", "lat": 1.326621, "lng": 103.904611, "copeE": null, "copeF": null, "copeG": null}, {"id": "EWS047", "name": "Chin Cheng Ave/ Jamiyah Children's Home", "lat": 1.317228, "lng": 103.906299, "copeE": null, "copeF": null, "copeG": null}, {"id": "CWS151", "name": "Tembeling Road OD (East Coast Rd)", "lat": 1.305548, "lng": 103.906419, "copeE": null, "copeF": null, "copeG": null}, {"id": "EWS278", "name": "Siglap Canal SD (Le Reve Condo)", "lat": 1.3189186, "lng": 103.9068, "copeE": null, "copeF": null, "copeG": null}, {"id": "CWS226", "name": "Marine Parade Central/ Marine Parade Rd", "lat": 1.3030111, "lng": 103.9070301, "copeE": null, "copeF": null, "copeG": null}, {"id": "CWS179", "name": "East Coast Rd/ Lor Stangee (CWS179)", "lat": 1.3079025, "lng": 103.9076551, "copeE": null, "copeF": null, "copeG": null}, {"id": "EWS216", "name": "Old Lorong Halus Landfill Site OD (Buangkok East Dr)", "lat": 1.37248495, "lng": 103.909056, "copeE": null, "copeF": null, "copeG": null}, {"id": "EWS254", "name": "Siglap Canal SD (D'Oasia)", "lat": 1.319556, "lng": 103.9105, "copeE": null, "copeF": null, "copeG": null}, {"id": "EWS279", "name": "Lor Telok Kurau OD (Cadence Light)", "lat": 1.3123853, "lng": 103.9111, "copeE": null, "copeF": null, "copeG": null}, {"id": "EWS006", "name": "Sims Ave East", "lat": 1.3237418, "lng": 103.9121773, "copeE": null, "copeF": null, "copeG": null}, {"id": "EWS376", "name": "Siglap Canal (Kembangan Plaza)", "lat": 1.32044, "lng": 103.91306, "copeE": null, "copeF": null, "copeG": null}, {"id": "EWS375", "name": "Siglap Canal (Kingston Terrace)", "lat": 1.31955, "lng": 103.91332, "copeE": null, "copeF": null, "copeG": null}, {"id": "EWS374", "name": "Siglap Canal (Shell)", "lat": 1.31902, "lng": 103.91343, "copeE": null, "copeF": null, "copeG": null}, {"id": "EWS011", "name": "Siglap Canal (Frankel Walk)", "lat": 1.3171242, "lng": 103.9142898, "copeE": null, "copeF": null, "copeG": null}, {"id": "EWS257", "name": "La Selle St OD (Frankel Ave)", "lat": 1.31625, "lng": 103.9175, "copeE": null, "copeF": null, "copeG": null}, {"id": "EWS373", "name": "Siglap Canal (St Patrick's Sch)", "lat": 1.30876, "lng": 103.91785, "copeE": null, "copeF": null, "copeG": null}, {"id": "EWS152", "name": "Kaki Bukit OD (Tampines Stockpile Site)", "lat": 1.3455654, "lng": 103.9184, "copeE": null, "copeF": null, "copeG": null}, {"id": "EWS218", "name": "Sg Blukar Sub Drain A ( Halus Link)", "lat": 1.381893, "lng": 103.91862, "copeE": null, "copeF": null, "copeG": null}, {"id": "EWS156", "name": "Siglap Canal (Ngee Ann Pri Sch)", "lat": 1.3051908, "lng": 103.9189, "copeE": null, "copeF": null, "copeG": null}, {"id": "EWS217", "name": "Sg Blukar Sub Drain B (Lorong Halus)", "lat": 1.3815454, "lng": 103.920033, "copeE": null, "copeF": null, "copeG": null}, {"id": "EWS065", "name": "Bedok Canal First Sub Drain(Bedok North Road)", "lat": 1.3346953, "lng": 103.920244, "copeE": null, "copeF": null, "copeG": null}, {"id": "EWS088", "name": "Sg Blukar (Lorong Halus)", "lat": 1.38222, "lng": 103.920866, "copeE": null, "copeF": null, "copeG": null}, {"id": "EWS219", "name": "Sg Blukar (Pasir Ris Industrial Drive 1)", "lat": 1.390715, "lng": 103.921568, "copeE": null, "copeF": null, "copeG": null}, {"id": "EWS220", "name": "Sg Blukar Sub Drain B (TPE)", "lat": 1.37837068, "lng": 103.922003, "copeE": null, "copeF": null, "copeG": null}, {"id": "EWS359", "name": "East Coast Ave (Unit 16)", "lat": 1.309621, "lng": 103.922978, "copeE": null, "copeF": null, "copeG": null}, {"id": "EWS084", "name": "New Upp Changi Rd / Chai Chee Rd", "lat": 1.32297051, "lng": 103.9231458, "copeE": null, "copeF": null, "copeG": null}, {"id": "EWS055", "name": "New Upp Changi Rd / Blk 26", "lat": 1.322969, "lng": 103.9237034, "copeE": null, "copeF": null, "copeG": null}, {"id": "EWS059", "name": "Terang Bulan Ave / New Upper Changi Rd", "lat": 1.3226266, "lng": 103.9239294, "copeE": null, "copeF": null, "copeG": null}, {"id": "EWS260", "name": "Opera Estate OD (Unit 4)", "lat": 1.3099086, "lng": 103.924121, "copeE": null, "copeF": null, "copeG": null}, {"id": "EWS021", "name": "Swan Lake Ave", "lat": 1.3204851, "lng": 103.9245832, "copeE": null, "copeF": null, "copeG": null}, {"id": "EWS050", "name": "Swan Lake Ave / Fidelio Street", "lat": 1.3190475, "lng": 103.9252577, "copeE": null, "copeF": null, "copeG": null}, {"id": "EWS147", "name": "Lakme Terrace (19)", "lat": 1.3175036, "lng": 103.9262515, "copeE": null, "copeF": null, "copeG": null}, {"id": "EWS146", "name": "Carmen St/ Lakme Terrace", "lat": 1.3176421, "lng": 103.9263621, "copeE": null, "copeF": null, "copeG": null}, {"id": "EWS038", "name": "Siglap Rd/ Marine Parade Rd", "lat": 1.309312, "lng": 103.926425, "copeE": null, "copeF": null, "copeG": null}, {"id": "EWS148", "name": "Opera Estate OD (Tua Kong Walk)", "lat": 1.316495, "lng": 103.926469, "copeE": null, "copeF": null, "copeG": null}, {"id": "EWS358", "name": "Jln Ulu Siglap (Unit 21)", "lat": 1.315041, "lng": 103.927321, "copeE": null, "copeF": null, "copeG": null}, {"id": "EWS161", "name": "Opera Estate OD (Siglap Link)", "lat": 1.308308, "lng": 103.928845, "copeE": null, "copeF": null, "copeG": null}, {"id": "EWS384", "name": "Bedok Canal SD5 (Temasek Poly U/s Culvert)", "lat": 1.34492, "lng": 103.93018, "copeE": null, "copeF": null, "copeG": null}, {"id": "EWS282", "name": "Pasir Ris Industrial Coast OD (Pasir Ris Coast Ind Park 6 )", "lat": 1.3970007, "lng": 103.931137, "copeE": null, "copeF": null, "copeG": null}, {"id": "EWS116", "name": "Sg Halus (Pasir Ris Coast Ind Pk 3)", "lat": 1.3891, "lng": 103.931999, "copeE": null, "copeF": null, "copeG": null}, {"id": "EWS222", "name": "Sg Api Api (Tampines Link / Tampines North Dr 1)", "lat": 1.370693, "lng": 103.932329, "copeE": null, "copeF": null, "copeG": null}, {"id": "EWS385", "name": "Bedok Canal SD5 (Temasek Poly D/s Culvert)", "lat": 1.342616, "lng": 103.932338, "copeE": null, "copeF": null, "copeG": null}, {"id": "EWS360", "name": "Bedok South Ave 1/Bedok South Rd", "lat": 1.3194501, "lng": 103.9325547, "copeE": null, "copeF": null, "copeG": null}, {"id": "EWS266", "name": "Bedok South Ave (Eastern Lagoon 2)", "lat": 1.3139704, "lng": 103.9329, "copeE": null, "copeF": null, "copeG": null}, {"id": "EWS044", "name": "Bedok South Rd/ Bedok South Ave 1", "lat": 1.316762, "lng": 103.932985, "copeE": null, "copeF": null, "copeG": null}, {"id": "EWS362", "name": "Bayshore Pk OD (213 Casafina)", "lat": 1.31613, "lng": 103.93363, "copeE": null, "copeF": null, "copeG": null}, {"id": "EWS005", "name": "Bedok North Ave 3", "lat": 1.3355755, "lng": 103.9337543, "copeE": null, "copeF": null, "copeG": null},